{
"type": "FeatureCollection",
"name": "african",
"bbox": [-75.28027, 39.867, -74.95576, 40.13799],
"features": [
{ "type": "Feature", "properties": { "name": "egenkitchen25", "rating": 3.0, "address": "193 Franklin Mills Blvd", "alias": "eventplanning, seafood, african", "title": "party & event planning, seafood, african", "cuisine": "West_African" }, "geometry": { "type": "Point", "coordinates": [ -74.96639, 40.0887 ] } },
{ "type": "Feature", "properties": { "name": "naana xtra-o restaurant", "rating": 2.9, "address": "6413 Castor Ave", "alias": "caribbean, african", "title": "caribbean, african", "cuisine": "West_African" }, "geometry": { "type": "Point", "coordinates": [ -75.07679, 40.03961 ] } },
{ "type": "Feature", "properties": { "name": "soul of africa restaurant", "rating": 3.4, "address": "6422 Rising Sun Ave", "alias": "african", "title": "african", "cuisine": "West_African" }, "geometry": { "type": "Point", "coordinates": [ -75.095099076308998, 40.050190587895003 ] } },
{ "type": "Feature", "properties": { "name": "food geez  restaurant", "rating": 3.4, "address": "6326 Sackett St", "alias": "african, tradamerican", "title": "african, american", "cuisine": "West_African" }, "geometry": { "type": "Point", "coordinates": [ -75.059095469575837, 40.028465909873525 ] } },
{ "type": "Feature", "properties": { "name": "salam cafe and market", "rating": 4.5, "address": "5532 Greene St", "alias": "ethiopian, mediterranean, gourmet", "title": "ethiopian, mediterranean, specialty food", "cuisine": "Ethiopian" }, "geometry": { "type": "Point", "coordinates": [ -75.175413500000019, 40.0331913 ] } },
{ "type": "Feature", "properties": { "name": "mama shan’s african & soul food cuisine", "rating": 3.0, "address": "2957 N 22nd St", "alias": "soulfood, african", "title": "soul food, african", "cuisine": "West_African" }, "geometry": { "type": "Point", "coordinates": [ -75.166503803988604, 39.999976054495562 ] } },
{ "type": "Feature", "properties": { "name": "era", "rating": 3.9, "address": "2743 Poplar St", "alias": "ethiopian, divebars", "title": "ethiopian, dive bars", "cuisine": "Ethiopian" }, "geometry": { "type": "Point", "coordinates": [ -75.18199, 39.97314 ] } },
{ "type": "Feature", "properties": { "name": "suya suya west african grill", "rating": 4.5, "address": "400 Fairmount Ave", "alias": "african", "title": "african", "cuisine": "West_African" }, "geometry": { "type": "Point", "coordinates": [ -75.14477, 39.96261 ] } },
{ "type": "Feature", "properties": { "name": "rafiki shoppe", "rating": 5.0, "address": "", "alias": "african, foodstands", "title": "african, food stands", "cuisine": "West_African" }, "geometry": { "type": "Point", "coordinates": [ -75.171736244491612, 39.950218587291097 ] } },
{ "type": "Feature", "properties": { "name": "almaz cafe", "rating": 4.3, "address": "140 South 20th St", "alias": "coffee, ethiopian, juicebars", "title": "coffee & tea, ethiopian, juice bars & smoothies", "cuisine": "Ethiopian" }, "geometry": { "type": "Point", "coordinates": [ -75.1739012, 39.9507964 ] } },
{ "type": "Feature", "properties": { "name": "prime fusion afro grill & lounge", "rating": 3.3, "address": "2425 Grays Ferry Ave", "alias": "african, hookah_bars, cocktailbars", "title": "african, hookah bars, cocktail bars", "cuisine": "West_African" }, "geometry": { "type": "Point", "coordinates": [ -75.183241200000012, 39.942834496154639 ] } },
{ "type": "Feature", "properties": { "name": "we yone african", "rating": 0.0, "address": "7200B Elmwood Ave", "alias": "african", "title": "african", "cuisine": "West_African" }, "geometry": { "type": "Point", "coordinates": [ -75.24034, 39.91488 ] } },
{ "type": "Feature", "properties": { "name": "suzzana african kitchen", "rating": 3.8, "address": "6521 Woodland Ave", "alias": "african", "title": "african", "cuisine": "West_African" }, "geometry": { "type": "Point", "coordinates": [ -75.23516, 39.92529 ] } },
{ "type": "Feature", "properties": { "name": "le mandingue african restaurant", "rating": 3.4, "address": "6620 Woodland Ave", "alias": "african", "title": "african", "cuisine": "West_African" }, "geometry": { "type": "Point", "coordinates": [ -75.2361, 39.92399 ] } },
{ "type": "Feature", "properties": { "name": "kou-sue mini supermarket", "rating": 0.0, "address": "6709 Woodland Ave", "alias": "african", "title": "african", "cuisine": "West_African" }, "geometry": { "type": "Point", "coordinates": [ -75.23736, 39.92373 ] } },
{ "type": "Feature", "properties": { "name": "african small pot", "rating": 4.2, "address": "6505 Woodland Ave", "alias": "senegalese", "title": "senegalese", "cuisine": "West_African" }, "geometry": { "type": "Point", "coordinates": [ -75.234701141104452, 39.925609570032954 ] } },
{ "type": "Feature", "properties": { "name": "meskerem ethiopian restaurant", "rating": 4.6, "address": "6505 Woodland Ave", "alias": "ethiopian", "title": "ethiopian", "cuisine": "Ethiopian" }, "geometry": { "type": "Point", "coordinates": [ -75.23473, 39.9256 ] } },
{ "type": "Feature", "properties": { "name": "taste africa", "rating": 4.0, "address": "6518 Woodland Ave", "alias": "african", "title": "african", "cuisine": "West_African" }, "geometry": { "type": "Point", "coordinates": [ -75.234580993652301, 39.925125122070298 ] } },
{ "type": "Feature", "properties": { "name": "ecowas african restaurant", "rating": 3.0, "address": "6421 Woodland Ave", "alias": "african", "title": "african", "cuisine": "West_African" }, "geometry": { "type": "Point", "coordinates": [ -75.233993500000011, 39.92612840000001 ] } },
{ "type": "Feature", "properties": { "name": "abeke’s kitchen", "rating": 3.5, "address": "6451 Grays Ave", "alias": "tradamerican, african", "title": "american, african", "cuisine": "West_African" }, "geometry": { "type": "Point", "coordinates": [ -75.23177, 39.9236 ] } },
{ "type": "Feature", "properties": { "name": "sonia's kitchen", "rating": 0.0, "address": "6451 Grays Ave", "alias": "african, french, tradamerican", "title": "african, french, american", "cuisine": "West_African" }, "geometry": { "type": "Point", "coordinates": [ -75.23177, 39.9236 ] } },
{ "type": "Feature", "properties": { "name": "bintou african & american restaurant", "rating": 4.3, "address": "6515 Elmwood Ave", "alias": "tradamerican, african", "title": "american, african", "cuisine": "West_African" }, "geometry": { "type": "Point", "coordinates": [ -75.2309113, 39.922081 ] } },
{ "type": "Feature", "properties": { "name": "chrisetta’s kitchen", "rating": 4.5, "address": "6600 Elmwood Ave", "alias": "african", "title": "african", "cuisine": "West_African" }, "geometry": { "type": "Point", "coordinates": [ -75.231509, 39.921114 ] } },
{ "type": "Feature", "properties": { "name": "royal lounge african restaurant", "rating": 0.0, "address": "6101 Woodland Ave", "alias": "soup, african", "title": "soup, african", "cuisine": "West_African" }, "geometry": { "type": "Point", "coordinates": [ -75.22963, 39.92915 ] } },
{ "type": "Feature", "properties": { "name": "le baobab", "rating": 4.2, "address": "5353 Woodland Ave", "alias": "african", "title": "african", "cuisine": "West_African" }, "geometry": { "type": "Point", "coordinates": [ -75.21887, 39.93675 ] } },
{ "type": "Feature", "properties": { "name": "thunka kitchen", "rating": 4.0, "address": "5629 Chester Ave", "alias": "african", "title": "african", "cuisine": "West_African" }, "geometry": { "type": "Point", "coordinates": [ -75.22675, 39.93728 ] } },
{ "type": "Feature", "properties": { "name": "aunty pat's kitchen", "rating": 5.0, "address": "6001 Chester Ave", "alias": "african", "title": "african", "cuisine": "West_African" }, "geometry": { "type": "Point", "coordinates": [ -75.231814, 39.933696 ] } },
{ "type": "Feature", "properties": { "name": "amsale cafe", "rating": 4.6, "address": "4817 Walnut St", "alias": "ethiopian, cafes", "title": "ethiopian, cafes", "cuisine": "Ethiopian" }, "geometry": { "type": "Point", "coordinates": [ -75.21833, 39.95633 ] } },
{ "type": "Feature", "properties": { "name": "anna restaurant", "rating": 4.4, "address": "304 S 52nd St", "alias": "african, tradamerican", "title": "african, american", "cuisine": "West_African" }, "geometry": { "type": "Point", "coordinates": [ -75.226339772343593, 39.954379963846797 ] } },
{ "type": "Feature", "properties": { "name": "dahlak", "rating": 3.5, "address": "4708 Baltimore Ave", "alias": "ethiopian, divebars", "title": "ethiopian, dive bars", "cuisine": "Ethiopian" }, "geometry": { "type": "Point", "coordinates": [ -75.217361450195298, 39.948387145996101 ] } },
{ "type": "Feature", "properties": { "name": "doro bet", "rating": 4.0, "address": "4533 Baltimore Ave", "alias": "ethiopian, gluten_free, chicken_wings", "title": "ethiopian, gluten-free, chicken wings", "cuisine": "Ethiopian" }, "geometry": { "type": "Point", "coordinates": [ -75.214385837316513, 39.949145026063434 ] } },
{ "type": "Feature", "properties": { "name": "gojjo bar & restaurant", "rating": 3.3, "address": "4540 Baltimore Ave", "alias": "ethiopian, african, newamerican", "title": "ethiopian, african, new american", "cuisine": "West_African" }, "geometry": { "type": "Point", "coordinates": [ -75.214103698730511, 39.948631286621101 ] } },
{ "type": "Feature", "properties": { "name": "buna cafe philly", "rating": 4.5, "address": "5121 Baltimore Ave", "alias": "ethiopian, breakfast_brunch, coffee", "title": "ethiopian, breakfast & brunch, coffee & tea", "cuisine": "Ethiopian" }, "geometry": { "type": "Point", "coordinates": [ -75.22624, 39.948 ] } },
{ "type": "Feature", "properties": { "name": "kilimandjaro restaurant", "rating": 4.1, "address": "4519 Baltimore Ave", "alias": "african", "title": "african", "cuisine": "West_African" }, "geometry": { "type": "Point", "coordinates": [ -75.213756761136679, 39.949320407244066 ] } },
{ "type": "Feature", "properties": { "name": "queen sheba", "rating": 3.8, "address": "4511 Baltimore Ave", "alias": "ethiopian", "title": "ethiopian", "cuisine": "Ethiopian" }, "geometry": { "type": "Point", "coordinates": [ -75.213548988103909, 39.948995435838 ] } },
{ "type": "Feature", "properties": { "name": "alif brew & mini mart", "rating": 4.9, "address": "4501 Baltimore Ave", "alias": "cafes, convenience, ethiopian", "title": "cafes, convenience stores, ethiopian", "cuisine": "Ethiopian" }, "geometry": { "type": "Point", "coordinates": [ -75.2131685, 39.94917083 ] } },
{ "type": "Feature", "properties": { "name": "sam's one stop shop", "rating": 5.0, "address": "324 S 52nd st", "alias": "african", "title": "african", "cuisine": "West_African" }, "geometry": { "type": "Point", "coordinates": [ -75.22646, 39.95381 ] } },
{ "type": "Feature", "properties": { "name": "abyssinia", "rating": 3.6, "address": "229 S 45th St", "alias": "ethiopian, bars", "title": "ethiopian, bars", "cuisine": "Ethiopian" }, "geometry": { "type": "Point", "coordinates": [ -75.211699921965163, 39.954187308490241 ] } },
{ "type": "Feature", "properties": { "name": "new tavern bar", "rating": 4.0, "address": "232 S 45th St", "alias": "bars, ethiopian, tradamerican", "title": "bars, ethiopian, american", "cuisine": "Ethiopian" }, "geometry": { "type": "Point", "coordinates": [ -75.21222, 39.95423 ] } },
{ "type": "Feature", "properties": { "name": "kaffa crossing", "rating": 4.1, "address": "4421 Chestnut St", "alias": "ethiopian, juicebars, breakfast_brunch", "title": "ethiopian, juice bars & smoothies, breakfast & brunch", "cuisine": "Ethiopian" }, "geometry": { "type": "Point", "coordinates": [ -75.210409915344215, 39.956863996418697 ] } },
{ "type": "Feature", "properties": { "name": "yawa resto", "rating": 0.0, "address": "3300 Fairmount Ave", "alias": "tradamerican, african, sandwiches", "title": "american, african, sandwiches", "cuisine": "West_African" }, "geometry": { "type": "Point", "coordinates": [ -75.19102, 39.966164 ] } },
{ "type": "Feature", "properties": { "name": "yawa resto", "rating": 0.0, "address": "3300 Fairmount Ave", "alias": "african, salad, sandwiches", "title": "african, salad, sandwiches", "cuisine": "West_African" }, "geometry": { "type": "Point", "coordinates": [ -75.19102, 39.966164 ] } },
{ "type": "Feature", "properties": { "name": "apex restaurant & catering services", "rating": 0.0, "address": "206 MacDade Blvd", "alias": "african", "title": "african", "cuisine": "West_African" }, "geometry": { "type": "Point", "coordinates": [ -75.2454457, 39.9301557 ] } },
{ "type": "Feature", "properties": { "name": "emma’s liberian kitchen", "rating": 4.5, "address": "7201 Woodland Ave", "alias": "african", "title": "african", "cuisine": "West_African" }, "geometry": { "type": "Point", "coordinates": [ -75.24473, 39.91857 ] } },
{ "type": "Feature", "properties": { "name": "angie's kitchen", "rating": 3.6, "address": "618 S 52nd St", "alias": "african", "title": "african", "cuisine": "West_African" }, "geometry": { "type": "Point", "coordinates": [ -75.2272969, 39.94995 ] } },
{ "type": "Feature", "properties": { "name": "df nigeria foodtruck", "rating": 0.0, "address": "3501 Market St", "alias": "foodtrucks, african", "title": "food trucks, african", "cuisine": "West_African" }, "geometry": { "type": "Point", "coordinates": [ -75.192954, 39.956475 ] } },
{ "type": "Feature", "properties": { "name": "eatwell african restaurant & lounge", "rating": 3.8, "address": "106 Chestnut St", "alias": "african, lounges", "title": "african, lounges", "cuisine": "West_African" }, "geometry": { "type": "Point", "coordinates": [ -75.14285, 39.94801 ] } }
]
}
