{
"type": "FeatureCollection",
"name": "european",
"crs": { "type": "name", "properties": { "name": "urn:ogc:def:crs:OGC:1.3:CRS84" } },
"features": [
{ "type": "Feature", "properties": { "name": "old english pizza", "rating": 2.2, "address": "2765 Orthodox St", "alias": "pizza", "title": "pizza", "cuisine": "West_European" }, "geometry": { "type": "Point", "coordinates": [ -75.07341, 39.99754 ] } },
{ "type": "Feature", "properties": { "name": "irish eyes social pub & restaurant", "rating": 3.7, "address": "4742 Richmond St", "alias": "bars, tradamerican", "title": "bars, american", "cuisine": "West_European" }, "geometry": { "type": "Point", "coordinates": [ -75.06632, 40.00124 ] } },
{ "type": "Feature", "properties": { "name": "dolce pizza", "rating": 3.5, "address": "1619 Grant Ave", "alias": "italian, pizza", "title": "italian, pizza", "cuisine": "Italian" }, "geometry": { "type": "Point", "coordinates": [ -75.038906978756572, 40.088281143632805 ] } },
{ "type": "Feature", "properties": { "name": "randi's restaurant and bar", "rating": 2.7, "address": "1619 Grant Ave", "alias": "italian, bars", "title": "italian, bars", "cuisine": "Italian" }, "geometry": { "type": "Point", "coordinates": [ -75.038827, 40.087697 ] } },
{ "type": "Feature", "properties": { "name": "adelinas restaurant & bar", "rating": 3.5, "address": "8235 Germantown Ave", "alias": "italian, bars", "title": "italian, bars", "cuisine": "Italian" }, "geometry": { "type": "Point", "coordinates": [ -75.2033613, 40.0743306 ] } },
{ "type": "Feature", "properties": { "name": "primohoagies", "rating": 2.5, "address": "51 Bethlehem Pike", "alias": "sandwiches, italian, steak", "title": "sandwiches, italian, steakhouses", "cuisine": "Italian" }, "geometry": { "type": "Point", "coordinates": [ -75.208242237567902, 40.078218169612903 ] } },
{ "type": "Feature", "properties": { "name": "frank's pizza", "rating": 4.2, "address": "3600 Fisk Ave", "alias": "pizza, italian, sandwiches", "title": "pizza, italian, sandwiches", "cuisine": "Italian" }, "geometry": { "type": "Point", "coordinates": [ -75.19421, 40.01313 ] } },
{ "type": "Feature", "properties": { "name": "billy murphy's irish saloon", "rating": 4.5, "address": "3333 Conrad St", "alias": "burgers, irish_pubs", "title": "burgers, irish pub", "cuisine": "West_European" }, "geometry": { "type": "Point", "coordinates": [ -75.187721275463105, 40.01078813297751 ] } },
{ "type": "Feature", "properties": { "name": "la trattoria ", "rating": 4.2, "address": "7131 Germantown Ave", "alias": "italian", "title": "italian", "cuisine": "Italian" }, "geometry": { "type": "Point", "coordinates": [ -75.18996, 40.05938 ] } },
{ "type": "Feature", "properties": { "name": "uncle tomy's", "rating": 3.2, "address": "1653 S 27th St", "alias": "pizza, italian, hotdogs", "title": "pizza, italian, fast food", "cuisine": "Italian" }, "geometry": { "type": "Point", "coordinates": [ -75.189729, 39.932068 ] } },
{ "type": "Feature", "properties": { "name": "deseo mexican grill & pizza", "rating": 3.7, "address": "1501 S 26th St", "alias": "pizza, mexican, italian", "title": "pizza, mexican, italian", "cuisine": "Italian" }, "geometry": { "type": "Point", "coordinates": [ -75.18768, 39.93413 ] } },
{ "type": "Feature", "properties": { "name": "tortas and pizza el sabor de mi tierra", "rating": 4.7, "address": "1501 S 26th St", "alias": "pizza, mexican, italian", "title": "pizza, mexican, italian", "cuisine": "Italian" }, "geometry": { "type": "Point", "coordinates": [ -75.18768, 39.93413 ] } },
{ "type": "Feature", "properties": { "name": "mama adas", "rating": 1.0, "address": "5419 N Mascher St", "alias": "pastashops, creperies", "title": "pasta shops, creperies", "cuisine": "Italian" }, "geometry": { "type": "Point", "coordinates": [ -75.12352, 40.03331 ] } },
{ "type": "Feature", "properties": { "name": "astoria restaurant", "rating": 3.7, "address": "8336 Bustleton Ave", "alias": "modern_european", "title": "modern european", "cuisine": "West_European" }, "geometry": { "type": "Point", "coordinates": [ -75.0510349, 40.0686405 ] } },
{ "type": "Feature", "properties": { "name": "bell's market", "rating": 3.8, "address": "8330 Bustleton Ave", "alias": "delis, grocery, russian", "title": "delis, grocery, russian", "cuisine": "East_European" }, "geometry": { "type": "Point", "coordinates": [ -75.051423, 40.068352 ] } },
{ "type": "Feature", "properties": { "name": "melody caterer and restaurant", "rating": 5.0, "address": "11723 Busleton Ave", "alias": "venues, modern_european, seafood", "title": "venues & event spaces, modern european, seafood", "cuisine": "West_European" }, "geometry": { "type": "Point", "coordinates": [ -75.0174754, 40.1194726 ] } },
{ "type": "Feature", "properties": { "name": "ulfatlar restaurant", "rating": 0.0, "address": null, "alias": "popuprestaurants", "title": "pop-up restaurants", "cuisine": "East_European" }, "geometry": { "type": "Point", "coordinates": [ -75.012762645529648, 40.116786635530993 ] } },
{ "type": "Feature", "properties": { "name": "rocco's italian sausage & chesse steaks", "rating": 4.2, "address": "11725 Bustleton Ave", "alias": "cheesesteaks, italian", "title": "cheesesteaks, italian", "cuisine": "Italian" }, "geometry": { "type": "Point", "coordinates": [ -75.0149301, 40.11927395768538 ] } },
{ "type": "Feature", "properties": { "name": "georgian bakery & cafe", "rating": 3.9, "address": "11749 Bustleton Ave", "alias": "bakeries, cafes", "title": "bakeries, cafes", "cuisine": "East_European" }, "geometry": { "type": "Point", "coordinates": [ -75.015982292206402, 40.120278966639809 ] } },
{ "type": "Feature", "properties": { "name": "cafe michelangelo", "rating": 3.3, "address": "11901 Bustleton Ave", "alias": "italian, pizza", "title": "italian, pizza", "cuisine": "Italian" }, "geometry": { "type": "Point", "coordinates": [ -75.01605987548831, 40.121421813964801 ] } },
{ "type": "Feature", "properties": { "name": "towers cafe", "rating": 4.0, "address": "11903 Bustleton Ave", "alias": "cakeshop, cafes", "title": "patisserie/cake shop, cafes", "cuisine": "West_European" }, "geometry": { "type": "Point", "coordinates": [ -75.01603, 40.1215 ] } },
{ "type": "Feature", "properties": { "name": "uzbekistan restaurant", "rating": 4.1, "address": "12012 Bustleton Ave", "alias": "uzbek, russian", "title": "uzbek, russian", "cuisine": "East_European" }, "geometry": { "type": "Point", "coordinates": [ -75.015985500000014, 40.1227364 ] } },
{ "type": "Feature", "properties": { "name": "georgian bread cuisine", "rating": 4.2, "address": "10865 Bustleton Ave", "alias": "georgian", "title": "georgian", "cuisine": "East_European" }, "geometry": { "type": "Point", "coordinates": [ -75.0244765, 40.1106089 ] } },
{ "type": "Feature", "properties": { "name": "marcello’s pizza-grill", "rating": 3.8, "address": "10849 Bustleton Ave", "alias": "pizza, italian", "title": "pizza, italian", "cuisine": "Italian" }, "geometry": { "type": "Point", "coordinates": [ -75.024101, 40.1102701 ] } },
{ "type": "Feature", "properties": { "name": "passage restaurant", "rating": 4.4, "address": "10783 Bustleton Ave", "alias": "french, ukrainian, modern_european", "title": "french, ukrainian, modern european", "cuisine": "West_European" }, "geometry": { "type": "Point", "coordinates": [ -75.0251482, 40.1096357 ] } },
{ "type": "Feature", "properties": { "name": "south philly italian kitchen", "rating": 4.3, "address": "311 W Mt Pleasant Ave", "alias": "italian, venues", "title": "italian, venues & event spaces", "cuisine": "Italian" }, "geometry": { "type": "Point", "coordinates": [ -75.19445, 40.054133 ] } },
{ "type": "Feature", "properties": { "name": "evo brickoven pizza", "rating": 4.0, "address": "277 W Mt Pleasant Ave", "alias": "pizza, italian", "title": "pizza, italian", "cuisine": "Italian" }, "geometry": { "type": "Point", "coordinates": [ -75.19394, 40.05463 ] } },
{ "type": "Feature", "properties": { "name": "toto's pizzeria", "rating": 2.9, "address": "6555 Greene St", "alias": "pizza, italian, sandwiches", "title": "pizza, italian, sandwiches", "cuisine": "Italian" }, "geometry": { "type": "Point", "coordinates": [ -75.190724, 40.043998 ] } },
{ "type": "Feature", "properties": { "name": "action pizza", "rating": 1.7, "address": "7202 Ogontz Ave", "alias": "pizza, italian", "title": "pizza, italian", "cuisine": "Italian" }, "geometry": { "type": "Point", "coordinates": [ -75.153923, 40.064155 ] } },
{ "type": "Feature", "properties": { "name": "ikea restaurant", "rating": 3.0, "address": "2206 S Christopher Columbus Blvd", "alias": "scandinavian", "title": "scandinavian", "cuisine": "West_European" }, "geometry": { "type": "Point", "coordinates": [ -75.141763237723453, 39.917133808157566 ] } },
{ "type": "Feature", "properties": { "name": "south street", "rating": 0.0, "address": "", "alias": "bars, irish", "title": "bars, irish", "cuisine": "West_European" }, "geometry": { "type": "Point", "coordinates": [ -75.13956, 39.912957 ] } },
{ "type": "Feature", "properties": { "name": "uncle oogie's", "rating": 3.4, "address": "36 Snyder Ave", "alias": "italian, pizza", "title": "italian, pizza", "cuisine": "Italian" }, "geometry": { "type": "Point", "coordinates": [ -75.146537991702758, 39.920910942474961 ] } },
{ "type": "Feature", "properties": { "name": "uncle mark’s cucina", "rating": 0.0, "address": "1935 S 3rd St", "alias": "italian, streetvendors, sandwiches", "title": "italian, street vendors, sandwiches", "cuisine": "Italian" }, "geometry": { "type": "Point", "coordinates": [ -75.15015, 39.923461 ] } },
{ "type": "Feature", "properties": { "name": "brick house pizza & restaurant", "rating": 3.7, "address": "3332 Grant Ave", "alias": "pizza, italian", "title": "pizza, italian", "cuisine": "Italian" }, "geometry": { "type": "Point", "coordinates": [ -75.006396, 40.068067 ] } },
{ "type": "Feature", "properties": { "name": "philly bistro", "rating": 1.0, "address": "810 Franklin Mills Cir", "alias": "tradamerican", "title": "american", "cuisine": "West_European" }, "geometry": { "type": "Point", "coordinates": [ -74.959610849618898, 40.083872303366697 ] } },
{ "type": "Feature", "properties": { "name": "joe santucci's square pizza bar & grill", "rating": 3.6, "address": "4050 Woodhaven Rd", "alias": "pizza, bars, italian", "title": "pizza, bars, italian", "cuisine": "Italian" }, "geometry": { "type": "Point", "coordinates": [ -74.971240680033205, 40.085913486673618 ] } },
{ "type": "Feature", "properties": { "name": "tuscani", "rating": 0.0, "address": "Rt 1", "alias": "italian", "title": "italian", "cuisine": "Italian" }, "geometry": { "type": "Point", "coordinates": [ -75.1836472, 40.0108604 ] } },
{ "type": "Feature", "properties": { "name": "el guayas restaurant", "rating": 5.0, "address": "715 Bristol Pike", "alias": "italian, soup, pizza", "title": "italian, soup, pizza", "cuisine": "Italian" }, "geometry": { "type": "Point", "coordinates": [ -74.976400472223759, 40.065148083138993 ] } },
{ "type": "Feature", "properties": { "name": "giuseppe's italian market", "rating": 1.0, "address": "1011 Bristol Pike", "alias": "delis", "title": "delis", "cuisine": "Italian" }, "geometry": { "type": "Point", "coordinates": [ -74.97014, 40.06769 ] } },
{ "type": "Feature", "properties": { "name": "reedy's tavern", "rating": 3.7, "address": "9245 Frankford Ave", "alias": "pubs, irish", "title": "pubs, irish", "cuisine": "West_European" }, "geometry": { "type": "Point", "coordinates": [ -75.00318, 40.05553 ] } },
{ "type": "Feature", "properties": { "name": "linden italian market", "rating": 3.2, "address": "4011 Linden Ave", "alias": "delis, italian, sandwiches", "title": "delis, italian, sandwiches", "cuisine": "Italian" }, "geometry": { "type": "Point", "coordinates": [ -75.00419, 40.05458 ] } },
{ "type": "Feature", "properties": { "name": "cannstatter volksfest verein", "rating": 4.1, "address": "9130 Academy Rd", "alias": "venues, german", "title": "venues & event spaces, german", "cuisine": "West_European" }, "geometry": { "type": "Point", "coordinates": [ -75.008043, 40.054758 ] } },
{ "type": "Feature", "properties": { "name": "primohoagies", "rating": 3.1, "address": "2417 Welsh Rd", "alias": "sandwiches, italian, steak", "title": "sandwiches, italian, steakhouses", "cuisine": "Italian" }, "geometry": { "type": "Point", "coordinates": [ -75.030449330806803, 40.071867946794001 ] } },
{ "type": "Feature", "properties": { "name": "café carmela", "rating": 4.3, "address": "2859 Holme Ave", "alias": "italian, pastashops, pizza", "title": "italian, pasta shops, pizza", "cuisine": "Italian" }, "geometry": { "type": "Point", "coordinates": [ -75.030338011246798, 40.057173063656798 ] } },
{ "type": "Feature", "properties": { "name": "holme style pizza", "rating": 2.6, "address": "2907 Holme Ave", "alias": "pizza, italian, sandwiches", "title": "pizza, italian, sandwiches", "cuisine": "Italian" }, "geometry": { "type": "Point", "coordinates": [ -75.027530672610041, 40.056866058876317 ] } },
{ "type": "Feature", "properties": { "name": "dagwood's pub", "rating": 4.2, "address": "4625 Linden Ave", "alias": "pubs, seafood", "title": "pubs, seafood", "cuisine": "West_European" }, "geometry": { "type": "Point", "coordinates": [ -74.999761571164001, 40.0506387 ] } },
{ "type": "Feature", "properties": { "name": "jimmy's timeout sports pub", "rating": 4.4, "address": "5001 Linden Ave", "alias": "sportsbars, pubs, tradamerican", "title": "sports bars, pubs, american", "cuisine": "West_European" }, "geometry": { "type": "Point", "coordinates": [ -74.994548298418493, 40.046160583107003 ] } },
{ "type": "Feature", "properties": { "name": "originals italian restaurant & bar", "rating": 2.9, "address": "9436 State Rd", "alias": "pizza, sandwiches, beer_and_wine", "title": "pizza, sandwiches, beer, wine & spirits", "cuisine": "Italian" }, "geometry": { "type": "Point", "coordinates": [ -74.989863, 40.049659 ] } },
{ "type": "Feature", "properties": { "name": "tuscany ristorante", "rating": 3.5, "address": "2418 Rhawn St", "alias": "italian", "title": "italian", "cuisine": "Italian" }, "geometry": { "type": "Point", "coordinates": [ -75.047859191894503, 40.0569458007812 ] } },
{ "type": "Feature", "properties": { "name": "al's italiano pizzeria & ristorante", "rating": 3.7, "address": "8202 Roosevelt Blvd", "alias": "italian, pizza", "title": "italian, pizza", "cuisine": "Italian" }, "geometry": { "type": "Point", "coordinates": [ -75.0446138, 40.0594993 ] } },
{ "type": "Feature", "properties": { "name": "bellissima pizza", "rating": 2.9, "address": "7816 Castor Ave", "alias": "pizza, italian, tacos", "title": "pizza, italian, tacos", "cuisine": "Italian" }, "geometry": { "type": "Point", "coordinates": [ -75.05952, 40.05869 ] } },
{ "type": "Feature", "properties": { "name": "gaeta's italian bakery", "rating": 4.7, "address": "7616 Castor Ave", "alias": "pizza", "title": "pizza", "cuisine": "Italian" }, "geometry": { "type": "Point", "coordinates": [ -75.06142, 40.05665 ] } },
{ "type": "Feature", "properties": { "name": "frank's spaghetti house", "rating": 3.4, "address": "7602 Castor Ave", "alias": "italian, newamerican, wine_bars", "title": "italian, new american, wine bars", "cuisine": "Italian" }, "geometry": { "type": "Point", "coordinates": [ -75.06185, 40.05618 ] } },
{ "type": "Feature", "properties": { "name": "rieker's prime meats", "rating": 4.6, "address": "7979 Oxford Ave", "alias": "meats, german, butcher", "title": "meat shops, german, butcher", "cuisine": "West_European" }, "geometry": { "type": "Point", "coordinates": [ -75.085022242668202, 40.076857501912997 ] } },
{ "type": "Feature", "properties": { "name": "chucks alibi", "rating": 0.0, "address": "7301 Oxford Ave", "alias": "seafood, lounges, pastashops", "title": "seafood, lounges, pasta shops", "cuisine": "Italian" }, "geometry": { "type": "Point", "coordinates": [ -75.083327, 40.061417 ] } },
{ "type": "Feature", "properties": { "name": "fila's pizza", "rating": 1.0, "address": "6398 Castor Ave", "alias": "pizza, sandwiches, italian", "title": "pizza, sandwiches, italian", "cuisine": "Italian" }, "geometry": { "type": "Point", "coordinates": [ -75.077792, 40.039476 ] } },
{ "type": "Feature", "properties": { "name": "spice bistro", "rating": 3.9, "address": "6742 Bustelton Ave", "alias": "szechuan, hotpot", "title": "szechuan, hot pot", "cuisine": "West_European" }, "geometry": { "type": "Point", "coordinates": [ -75.06617, 40.04033 ] } },
{ "type": "Feature", "properties": { "name": "old english pizza", "rating": 2.8, "address": "5421 Oxford Ave", "alias": "pizza", "title": "pizza", "cuisine": "West_European" }, "geometry": { "type": "Point", "coordinates": [ -75.084789482815594, 40.030915899606704 ] } },
{ "type": "Feature", "properties": { "name": "old english pizza two", "rating": 1.0, "address": "5421 Oxford Ave", "alias": "pizza", "title": "pizza", "cuisine": "West_European" }, "geometry": { "type": "Point", "coordinates": [ -75.08465, 40.03074 ] } },
{ "type": "Feature", "properties": { "name": "the irish kitchen", "rating": 0.0, "address": "1257 Pratt St", "alias": "irish, pubs", "title": "irish, pubs", "cuisine": "West_European" }, "geometry": { "type": "Point", "coordinates": [ -75.08261, 40.02537 ] } },
{ "type": "Feature", "properties": { "name": "rocco's italian sausages", "rating": 3.0, "address": "4640 Roosevelt Blvd", "alias": "italian, gluten_free", "title": "italian, gluten-free", "cuisine": "Italian" }, "geometry": { "type": "Point", "coordinates": [ -75.1016129, 40.032278622319041 ] } },
{ "type": "Feature", "properties": { "name": "al-fahd kitchen", "rating": 0.0, "address": "8107 Frankford Ave", "alias": "italian, tradamerican, pizza", "title": "italian, american, pizza", "cuisine": "Italian" }, "geometry": { "type": "Point", "coordinates": [ -75.025095373915931, 40.04219386531711 ] } },
{ "type": "Feature", "properties": { "name": "venice pizza and italian eatery", "rating": 3.3, "address": "3613 Rhawn St", "alias": "pizza", "title": "pizza", "cuisine": "Italian" }, "geometry": { "type": "Point", "coordinates": [ -75.0284424, 40.0420189 ] } },
{ "type": "Feature", "properties": { "name": "primohoagies", "rating": 2.8, "address": "6602 Frankford Ave", "alias": "sandwiches, italian, steak", "title": "sandwiches, italian, steakhouses", "cuisine": "Italian" }, "geometry": { "type": "Point", "coordinates": [ -75.054824273165707, 40.030965705772395 ] } },
{ "type": "Feature", "properties": { "name": "montesini pizza", "rating": 3.7, "address": "6420 Frankford Ave", "alias": "pizza, italian", "title": "pizza, italian", "cuisine": "Italian" }, "geometry": { "type": "Point", "coordinates": [ -75.058385669116902, 40.02951085764191 ] } },
{ "type": "Feature", "properties": { "name": "p & s ravioli company", "rating": 3.4, "address": "7051 Torresdale Ave", "alias": "pastashops, delis, seafood", "title": "pasta shops, delis, seafood", "cuisine": "Italian" }, "geometry": { "type": "Point", "coordinates": [ -75.0390218, 40.027895288858588 ] } },
{ "type": "Feature", "properties": { "name": "baby boss pizza and grill", "rating": 3.1, "address": "4625 Princeton Ave", "alias": "italian, pizza, mexican", "title": "italian, pizza, mexican", "cuisine": "Italian" }, "geometry": { "type": "Point", "coordinates": [ -75.03912, 40.02877 ] } },
{ "type": "Feature", "properties": { "name": "johnnie's italian restaurant", "rating": 3.7, "address": "4201 Comly St", "alias": "italian, venues, seafood", "title": "italian, venues & event spaces, seafood", "cuisine": "Italian" }, "geometry": { "type": "Point", "coordinates": [ -75.063438415527301, 40.022754669189503 ] } },
{ "type": "Feature", "properties": { "name": "pina's pizza", "rating": 3.6, "address": "8919 Ridge Ave", "alias": "pizza, italian, seafood", "title": "pizza, italian, seafood", "cuisine": "Italian" }, "geometry": { "type": "Point", "coordinates": [ -75.24045, 40.06929 ] } },
{ "type": "Feature", "properties": { "name": "maria's ristorante on summit", "rating": 3.7, "address": "8100 Ridge Ave", "alias": "italian, pizza", "title": "italian, pizza", "cuisine": "Italian" }, "geometry": { "type": "Point", "coordinates": [ -75.23634, 40.05669 ] } },
{ "type": "Feature", "properties": { "name": "tony roni's pizza roxborough", "rating": 3.5, "address": "499 Domino Ln", "alias": "pizza, italian", "title": "pizza, italian", "cuisine": "Italian" }, "geometry": { "type": "Point", "coordinates": [ -75.2327285, 40.0454066 ] } },
{ "type": "Feature", "properties": { "name": "mister p’s pizza & pasta", "rating": 3.4, "address": "7138 Ridge Ave", "alias": "pizza, italian, sandwiches", "title": "pizza, italian, sandwiches", "cuisine": "Italian" }, "geometry": { "type": "Point", "coordinates": [ -75.231934826668891, 40.044117951659011 ] } },
{ "type": "Feature", "properties": { "name": "ptg catering", "rating": 4.5, "address": "6813 Ridge Ave", "alias": "italian, catering, salad", "title": "italian, caterers, salad", "cuisine": "Italian" }, "geometry": { "type": "Point", "coordinates": [ -75.22628, 40.04287990000001 ] } },
{ "type": "Feature", "properties": { "name": "roxy hall and bistro", "rating": 4.0, "address": "6139 Ridge Ave", "alias": "newamerican, bars, venues", "title": "new american, bars, venues & event spaces", "cuisine": "West_European" }, "geometry": { "type": "Point", "coordinates": [ -75.21627, 40.03484 ] } },
{ "type": "Feature", "properties": { "name": "primohoagies", "rating": 3.0, "address": "6024 Ridge Ave", "alias": "sandwiches, italian, steak", "title": "sandwiches, italian, steakhouses", "cuisine": "Italian" }, "geometry": { "type": "Point", "coordinates": [ -75.214430317790999, 40.0324827851463 ] } },
{ "type": "Feature", "properties": { "name": "roses real italian waterice", "rating": 5.0, "address": "4240 Pechin St", "alias": "breakfast_brunch, shavedice", "title": "breakfast & brunch, shaved ice", "cuisine": "Italian" }, "geometry": { "type": "Point", "coordinates": [ -75.215164184570298, 40.028125762939503 ] } },
{ "type": "Feature", "properties": { "name": "hilltown tavern", "rating": 4.0, "address": "326 Roxborough Ave", "alias": "sportsbars, irish_pubs, burgers", "title": "sports bars, irish pub, burgers", "cuisine": "West_European" }, "geometry": { "type": "Point", "coordinates": [ -75.215829514925304, 40.0280368006554 ] } },
{ "type": "Feature", "properties": { "name": "the pierogie kitchen", "rating": 3.9, "address": "648 Roxborough Ave", "alias": "ukrainian", "title": "ukrainian", "cuisine": "East_European" }, "geometry": { "type": "Point", "coordinates": [ -75.208060085037204, 40.031551295162494 ] } },
{ "type": "Feature", "properties": { "name": "fiesta pizza ii", "rating": 3.1, "address": "600 E Jamestown St", "alias": "pizza, italian", "title": "pizza, italian", "cuisine": "Italian" }, "geometry": { "type": "Point", "coordinates": [ -75.206349503461993, 40.030046608268002 ] } },
{ "type": "Feature", "properties": { "name": "mia ragazza", "rating": 4.3, "address": "4411 Main St", "alias": "italian, gluten_free, cocktailbars", "title": "italian, gluten-free, cocktail bars", "cuisine": "Italian" }, "geometry": { "type": "Point", "coordinates": [ -75.22501172805714, 40.026293353659973 ] } },
{ "type": "Feature", "properties": { "name": "wissahickon bar & bistro", "rating": 4.5, "address": "5109 Rochelle Ave", "alias": "burgers, bars", "title": "burgers, bars", "cuisine": "West_European" }, "geometry": { "type": "Point", "coordinates": [ -75.21044921875, 40.017108917236307 ] } },
{ "type": "Feature", "properties": { "name": "giovanni's pizzeria", "rating": 2.4, "address": "5604 Greene St", "alias": "pizza, italian, sandwiches", "title": "pizza, italian, sandwiches", "cuisine": "Italian" }, "geometry": { "type": "Point", "coordinates": [ -75.175806995932675, 40.033518380720174 ] } },
{ "type": "Feature", "properties": { "name": "the original garden of bilal", "rating": 3.7, "address": "40 West Maplewood Mall", "alias": "breakfast_brunch, tradamerican, fishnchips", "title": "breakfast & brunch, american, fish & chips", "cuisine": "West_European" }, "geometry": { "type": "Point", "coordinates": [ -75.174777167740331, 40.033975950223763 ] } },
{ "type": "Feature", "properties": { "name": "german juan bautista", "rating": 0.0, "address": "1735 W Butler St", "alias": "german", "title": "german", "cuisine": "West_European" }, "geometry": { "type": "Point", "coordinates": [ -75.1571, 40.01182 ] } },
{ "type": "Feature", "properties": { "name": "wine beer & tastie wings", "rating": 0.0, "address": "600 East Wyoming Ave", "alias": "beerbar, chicken_wings, wine_bars", "title": "beer bar, chicken wings, wine bars", "cuisine": "Italian" }, "geometry": { "type": "Point", "coordinates": [ -75.1140077, 40.020084563643785 ] } },
{ "type": "Feature", "properties": { "name": "old english style pizza", "rating": 0.0, "address": "9 Hunting Park Ave", "alias": "italian, pizza", "title": "italian, pizza", "cuisine": "West_European" }, "geometry": { "type": "Point", "coordinates": [ -75.153831481933594, 40.015911102294901 ] } },
{ "type": "Feature", "properties": { "name": "3 brothers pizza & pasta", "rating": 3.8, "address": "2621 E Ontario St", "alias": "pizza, italian", "title": "pizza, italian", "cuisine": "Italian" }, "geometry": { "type": "Point", "coordinates": [ -75.098389, 39.987659 ] } },
{ "type": "Feature", "properties": { "name": "byrne's tavern®", "rating": 4.2, "address": "3301 Richmond St", "alias": "irish, chicken_wings", "title": "irish, chicken wings", "cuisine": "West_European" }, "geometry": { "type": "Point", "coordinates": [ -75.0987, 39.9841 ] } },
{ "type": "Feature", "properties": { "name": "polskie delikatesy", "rating": 0.0, "address": "2719 E Allegheny Ave", "alias": "polish", "title": "polish", "cuisine": "East_European" }, "geometry": { "type": "Point", "coordinates": [ -75.101807, 39.983788 ] } },
{ "type": "Feature", "properties": { "name": "the dinner house", "rating": 4.6, "address": "2706 E Allegheny Ave", "alias": "modern_european, polish", "title": "modern european, polish", "cuisine": "West_European" }, "geometry": { "type": "Point", "coordinates": [ -75.102622, 39.98414 ] } },
{ "type": "Feature", "properties": { "name": "polmart grocery", "rating": 4.8, "address": "2712 E Allegheny Ave", "alias": "grocery, polish", "title": "grocery, polish", "cuisine": "East_European" }, "geometry": { "type": "Point", "coordinates": [ -75.10254, 39.98376 ] } },
{ "type": "Feature", "properties": { "name": "m & m restaurant", "rating": 4.4, "address": "2736 E Allegheny Ave", "alias": "polish", "title": "polish", "cuisine": "East_European" }, "geometry": { "type": "Point", "coordinates": [ -75.10196, 39.98311 ] } },
{ "type": "Feature", "properties": { "name": "mom mom’s kitchen", "rating": 5.0, "address": "3124 Richmond St", "alias": "polish, tradamerican, foodtrucks", "title": "polish, american, food trucks", "cuisine": "East_European" }, "geometry": { "type": "Point", "coordinates": [ -75.103087009589828, 39.982346772891987 ] } },
{ "type": "Feature", "properties": { "name": "sean thorntons public house", "rating": 4.0, "address": "2401 E Allegheny Ave", "alias": "gastropubs, irish, catering", "title": "gastropubs, irish, caterers", "cuisine": "West_European" }, "geometry": { "type": "Point", "coordinates": [ -75.105553, 39.988106 ] } },
{ "type": "Feature", "properties": { "name": "primohoagies", "rating": 4.4, "address": "2703 E Clearfield St", "alias": "sandwiches, italian, steak", "title": "sandwiches, italian, steakhouses", "cuisine": "Italian" }, "geometry": { "type": "Point", "coordinates": [ -75.104695558548002, 39.982881084683001 ] } },
{ "type": "Feature", "properties": { "name": "old english style pizza", "rating": 1.5, "address": "4163 N 9th St", "alias": "pizza", "title": "pizza", "cuisine": "West_European" }, "geometry": { "type": "Point", "coordinates": [ -75.14093, 40.01563 ] } },
{ "type": "Feature", "properties": { "name": "bentoulis pizza", "rating": 3.5, "address": "1226 E Hunting Park Ave", "alias": "pizza, italian, tradamerican", "title": "pizza, italian, american", "cuisine": "Italian" }, "geometry": { "type": "Point", "coordinates": [ -75.10297, 40.01063 ] } },
{ "type": "Feature", "properties": { "name": "kensington pub", "rating": 4.8, "address": "2116 E Tioga St", "alias": "pubs, newamerican, tradamerican", "title": "pubs, new american, american", "cuisine": "West_European" }, "geometry": { "type": "Point", "coordinates": [ -75.1025302, 39.995567 ] } },
{ "type": "Feature", "properties": { "name": "pizza party", "rating": 0.0, "address": "3700 Frankford Ave", "alias": "italian, pizza", "title": "italian, pizza", "cuisine": "Italian" }, "geometry": { "type": "Point", "coordinates": [ -75.099014282226605, 39.999942779541009 ] } },
{ "type": "Feature", "properties": { "name": "ozzy's pizza shop", "rating": 2.7, "address": "3321 B St", "alias": "pizza, italian", "title": "pizza, italian", "cuisine": "Italian" }, "geometry": { "type": "Point", "coordinates": [ -75.12467, 40.00021 ] } },
{ "type": "Feature", "properties": { "name": "crown chicken and biscuit", "rating": 5.0, "address": "2201 N Broad St", "alias": "chicken_wings, desserts, fishnchips", "title": "chicken wings, desserts, fish & chips", "cuisine": "West_European" }, "geometry": { "type": "Point", "coordinates": [ -75.15571, 39.98635 ] } },
{ "type": "Feature", "properties": { "name": "italian express", "rating": 3.5, "address": "2641 W Girard Ave", "alias": "pizza, italian, sandwiches", "title": "pizza, italian, sandwiches", "cuisine": "Italian" }, "geometry": { "type": "Point", "coordinates": [ -75.18026, 39.97437 ] } },
{ "type": "Feature", "properties": { "name": "lazos pizza & grill", "rating": 3.7, "address": "2533 Poplar St", "alias": "pizza, tradamerican, italian", "title": "pizza, american, italian", "cuisine": "Italian" }, "geometry": { "type": "Point", "coordinates": [ -75.17882, 39.97277 ] } },
{ "type": "Feature", "properties": { "name": "sandwich corner market", "rating": 4.9, "address": "1945 Poplar St", "alias": "sandwiches, salad, italian", "title": "sandwiches, salad, italian", "cuisine": "Italian" }, "geometry": { "type": "Point", "coordinates": [ -75.169138982892036, 39.97149249424713 ] } },
{ "type": "Feature", "properties": { "name": "angelino's restaurant, fairmount- philadelphia", "rating": 3.9, "address": "849 N 25th St", "alias": "pizza, italian, sandwiches", "title": "pizza, italian, sandwiches", "cuisine": "Italian" }, "geometry": { "type": "Point", "coordinates": [ -75.1776345, 39.9712971 ] } },
{ "type": "Feature", "properties": { "name": "the black taxi", "rating": 4.1, "address": "745-747 N 25th St", "alias": "irish, irish_pubs", "title": "irish, irish pub", "cuisine": "West_European" }, "geometry": { "type": "Point", "coordinates": [ -75.17816, 39.96872 ] } },
{ "type": "Feature", "properties": { "name": "pub webb", "rating": 4.0, "address": "1527 Cecil B Moore Ave", "alias": "newamerican, musicvenues, sportsbars", "title": "new american, music venues, sports bars", "cuisine": "West_European" }, "geometry": { "type": "Point", "coordinates": [ -75.160534072998999, 39.979135360745502 ] } },
{ "type": "Feature", "properties": { "name": "toto fish & chips", "rating": 5.0, "address": "2636 Germantown Ave", "alias": "restaurants", "title": "restaurants", "cuisine": "West_European" }, "geometry": { "type": "Point", "coordinates": [ -75.14828, 39.99248 ] } },
{ "type": "Feature", "properties": { "name": "angelina's pizzeria", "rating": 0.0, "address": "327 W York St", "alias": "pizza, italian", "title": "pizza, italian", "cuisine": "Italian" }, "geometry": { "type": "Point", "coordinates": [ -75.1392716, 39.9873954 ] } },
{ "type": "Feature", "properties": { "name": "cake & joe", "rating": 4.1, "address": "2012 Frankford Ave", "alias": "cakeshop, breakfast_brunch, coffee", "title": "patisserie/cake shop, breakfast & brunch, coffee & tea", "cuisine": "West_European" }, "geometry": { "type": "Point", "coordinates": [ -75.130180652983796, 39.979051694282155 ] } },
{ "type": "Feature", "properties": { "name": "primohoagies", "rating": 3.9, "address": "1501 E Susquehanna Ave", "alias": "sandwiches, italian, steak", "title": "sandwiches, italian, steakhouses", "cuisine": "Italian" }, "geometry": { "type": "Point", "coordinates": [ -75.1267718477812, 39.975984969937898 ] } },
{ "type": "Feature", "properties": { "name": "castellino's", "rating": 4.9, "address": "1255 E Palmer St", "alias": "italian, intlgrocery, delis", "title": "italian, international grocery, delis", "cuisine": "Italian" }, "geometry": { "type": "Point", "coordinates": [ -75.129040463958447, 39.972337325813434 ] } },
{ "type": "Feature", "properties": { "name": "tulip pasta & wine bar", "rating": 4.2, "address": "2302 E Norris St", "alias": "italian, wine_bars", "title": "italian, wine bars", "cuisine": "Italian" }, "geometry": { "type": "Point", "coordinates": [ -75.129511199997339, 39.977878686160459 ] } },
{ "type": "Feature", "properties": { "name": "elma", "rating": 5.0, "address": "431 E Girard Ave", "alias": "italian", "title": "italian", "cuisine": "Italian" }, "geometry": { "type": "Point", "coordinates": [ -75.129784941673279, 39.970725898958719 ] } },
{ "type": "Feature", "properties": { "name": "il ghiottone", "rating": 4.2, "address": "2723 E Cumberland St", "alias": "italian", "title": "italian", "cuisine": "Italian" }, "geometry": { "type": "Point", "coordinates": [ -75.11835, 39.97507 ] } },
{ "type": "Feature", "properties": { "name": "la locanda del ghiottone", "rating": 3.8, "address": "2723 E Cumberland St", "alias": "italian", "title": "italian", "cuisine": "Italian" }, "geometry": { "type": "Point", "coordinates": [ -75.11835, 39.97507 ] } },
{ "type": "Feature", "properties": { "name": "sin steak italian nightlife", "rating": 3.0, "address": "1102 Germantown Ave", "alias": "steak, italian, cocktailbars", "title": "steakhouses, italian, cocktail bars", "cuisine": "Italian" }, "geometry": { "type": "Point", "coordinates": [ -75.140193, 39.968128 ] } },
{ "type": "Feature", "properties": { "name": "rustica", "rating": 4.0, "address": "903 N 2nd St", "alias": "pizza, italian, sandwiches", "title": "pizza, italian, sandwiches", "cuisine": "Italian" }, "geometry": { "type": "Point", "coordinates": [ -75.140472412109403, 39.964214324951207 ] } },
{ "type": "Feature", "properties": { "name": "bar1010", "rating": 4.2, "address": "701 N 2nd St", "alias": "cocktailbars, pizza, italian", "title": "cocktail bars, pizza, italian", "cuisine": "Italian" }, "geometry": { "type": "Point", "coordinates": [ -75.140854, 39.961949 ] } },
{ "type": "Feature", "properties": { "name": "d'oliva evoo pizza & grill", "rating": 4.3, "address": "1009 N Bodine St", "alias": "pizza, italian, tradamerican", "title": "pizza, italian, american", "cuisine": "Italian" }, "geometry": { "type": "Point", "coordinates": [ -75.1413657, 39.9672183 ] } },
{ "type": "Feature", "properties": { "name": "bravo pizza ii", "rating": 2.3, "address": "1323 Lindley Ave", "alias": "italian, pizza", "title": "italian, pizza", "cuisine": "Italian" }, "geometry": { "type": "Point", "coordinates": [ -75.145634800000011, 40.0303798 ] } },
{ "type": "Feature", "properties": { "name": "mexi-talian grill restaurant", "rating": 4.6, "address": "411- 413 S St", "alias": "mexican, italian, salad", "title": "mexican, italian, salad", "cuisine": "Italian" }, "geometry": { "type": "Point", "coordinates": [ -75.149556, 39.941805 ] } },
{ "type": "Feature", "properties": { "name": "the bistro above south street souvlaki", "rating": 5.0, "address": "509 South St", "alias": "tapasmallplates, modern_european", "title": "tapas/small plates, modern european", "cuisine": "West_European" }, "geometry": { "type": "Point", "coordinates": [ -75.15111, 39.94203 ] } },
{ "type": "Feature", "properties": { "name": "lorenzo & sons pizza", "rating": 3.8, "address": "305 S St", "alias": "pizza, italian", "title": "pizza, italian", "cuisine": "Italian" }, "geometry": { "type": "Point", "coordinates": [ -75.1478101, 39.941596 ] } },
{ "type": "Feature", "properties": { "name": "provenance", "rating": 0.0, "address": "408 S 2nd St", "alias": "french", "title": "french", "cuisine": "West_European" }, "geometry": { "type": "Point", "coordinates": [ -75.145656302916791, 39.94288496766724 ] } },
{ "type": "Feature", "properties": { "name": "gnocchi", "rating": 4.0, "address": "613 E Passyunk Ave", "alias": "italian", "title": "italian", "cuisine": "Italian" }, "geometry": { "type": "Point", "coordinates": [ -75.15033, 39.94138 ] } },
{ "type": "Feature", "properties": { "name": "pizzeria stella", "rating": 3.9, "address": "420 S 2nd St", "alias": "pizza, italian", "title": "pizza, italian", "cuisine": "Italian" }, "geometry": { "type": "Point", "coordinates": [ -75.145682394504504, 39.942424709449398 ] } },
{ "type": "Feature", "properties": { "name": "coin's pub", "rating": 1.3, "address": "400 Arch St", "alias": "newamerican", "title": "new american", "cuisine": "West_European" }, "geometry": { "type": "Point", "coordinates": [ -75.147369384765597, 39.951892852783203 ] } },
{ "type": "Feature", "properties": { "name": "old city pizza", "rating": 3.3, "address": "100 N 3rd St", "alias": "pizza, italian, breakfast_brunch", "title": "pizza, italian, breakfast & brunch", "cuisine": "Italian" }, "geometry": { "type": "Point", "coordinates": [ -75.145315829078996, 39.952328793656001 ] } },
{ "type": "Feature", "properties": { "name": "bronze table", "rating": 4.1, "address": "111 S Independence Mall E", "alias": "italian, pastashops", "title": "italian, pasta shops", "cuisine": "Italian" }, "geometry": { "type": "Point", "coordinates": [ -75.148196, 39.949747 ] } },
{ "type": "Feature", "properties": { "name": "primohoagies", "rating": 3.2, "address": "304 Market St", "alias": "sandwiches, italian, steak", "title": "sandwiches, italian, steakhouses", "cuisine": "Italian" }, "geometry": { "type": "Point", "coordinates": [ -75.146054, 39.949975 ] } },
{ "type": "Feature", "properties": { "name": "the angelo pizza", "rating": 4.5, "address": "229 Market St", "alias": "pizza, italian", "title": "pizza, italian", "cuisine": "Italian" }, "geometry": { "type": "Point", "coordinates": [ -75.144696, 39.950276 ] } },
{ "type": "Feature", "properties": { "name": "chez ben", "rating": 3.3, "address": "401 Chestnut St", "alias": "bars, breakfast_brunch, french", "title": "bars, breakfast & brunch, french", "cuisine": "West_European" }, "geometry": { "type": "Point", "coordinates": [ -75.147732608020306, 39.949060463931502 ] } },
{ "type": "Feature", "properties": { "name": "carmen's famous italian hoagies", "rating": 3.6, "address": "12th St & Arch St", "alias": "sandwiches, cheesesteaks", "title": "sandwiches, cheesesteaks", "cuisine": "Italian" }, "geometry": { "type": "Point", "coordinates": [ -75.159466, 39.953949 ] } },
{ "type": "Feature", "properties": { "name": "saami somi", "rating": 4.6, "address": "51 N 12th St", "alias": "georgian", "title": "georgian", "cuisine": "East_European" }, "geometry": { "type": "Point", "coordinates": [ -75.159382919412508, 39.953598712116666 ] } },
{ "type": "Feature", "properties": { "name": "maggiano's little italy", "rating": 3.7, "address": "1201 Filbert St", "alias": "italian, bars, venues", "title": "italian, bars, venues & event spaces", "cuisine": "Italian" }, "geometry": { "type": "Point", "coordinates": [ -75.1598201, 39.9531249 ] } },
{ "type": "Feature", "properties": { "name": "profi's crêperie", "rating": 3.9, "address": "51 N 12th St", "alias": "creperies, french", "title": "creperies, french", "cuisine": "West_European" }, "geometry": { "type": "Point", "coordinates": [ -75.159268, 39.953328 ] } },
{ "type": "Feature", "properties": { "name": "by george! pizza pasta & cheesesteaks", "rating": 3.8, "address": "51 N 12th St", "alias": "pizza, cheesesteaks, italian", "title": "pizza, cheesesteaks, italian", "cuisine": "Italian" }, "geometry": { "type": "Point", "coordinates": [ -75.159469631911904, 39.953222241480198 ] } },
{ "type": "Feature", "properties": { "name": "saami somi", "rating": 0.0, "address": "1136 Arch St", "alias": "georgian", "title": "georgian", "cuisine": "East_European" }, "geometry": { "type": "Point", "coordinates": [ -75.158787970557199, 39.953564456086362 ] } },
{ "type": "Feature", "properties": { "name": "moriarty's restaurant and irish pub", "rating": 3.6, "address": "1116 Walnut St", "alias": "pubs, irish", "title": "pubs, irish", "cuisine": "West_European" }, "geometry": { "type": "Point", "coordinates": [ -75.15987, 39.94859 ] } },
{ "type": "Feature", "properties": { "name": "tria cafe wash west", "rating": 4.5, "address": "1137 Spruce St", "alias": "wine_bars, modern_european", "title": "wine bars, modern european", "cuisine": "West_European" }, "geometry": { "type": "Point", "coordinates": [ -75.1609139, 39.9466238 ] } },
{ "type": "Feature", "properties": { "name": "caribou cafe", "rating": 3.2, "address": "1126 Walnut St", "alias": "french, cafes", "title": "french, cafes", "cuisine": "West_European" }, "geometry": { "type": "Point", "coordinates": [ -75.160094958248905, 39.948753133212307 ] } },
{ "type": "Feature", "properties": { "name": "remi ricotta", "rating": 0.0, "address": "1121 Walnut St", "alias": "italian", "title": "italian", "cuisine": "Italian" }, "geometry": { "type": "Point", "coordinates": [ -75.15998762100935, 39.948976158723319 ] } },
{ "type": "Feature", "properties": { "name": "luigi’s pizza fresca", "rating": 3.8, "address": "2401 Fairmount Ave", "alias": "pizza, italian", "title": "pizza, italian", "cuisine": "Italian" }, "geometry": { "type": "Point", "coordinates": [ -75.17709, 39.96759 ] } },
{ "type": "Feature", "properties": { "name": "a mano", "rating": 4.2, "address": "2244 Fairmount Ave", "alias": "italian", "title": "italian", "cuisine": "Italian" }, "geometry": { "type": "Point", "coordinates": [ -75.175321161224375, 39.967234392974106 ] } },
{ "type": "Feature", "properties": { "name": "fairmount pizza and grill", "rating": 3.3, "address": "2000 Fairmount Ave", "alias": "pizza, italian, sandwiches", "title": "pizza, italian, sandwiches", "cuisine": "Italian" }, "geometry": { "type": "Point", "coordinates": [ -75.17036, 39.96701 ] } },
{ "type": "Feature", "properties": { "name": "philly flavors", "rating": 5.0, "address": "2004 Fairmount Ave", "alias": "cakeshop, cafes, icecream", "title": "patisserie/cake shop, cafes, ice cream & frozen yogurt", "cuisine": "West_European" }, "geometry": { "type": "Point", "coordinates": [ -75.1705215, 39.967072833454772 ] } },
{ "type": "Feature", "properties": { "name": "fare", "rating": 3.7, "address": "2028 Fairmount Ave", "alias": "newamerican, seafood, wine_bars", "title": "new american, seafood, wine bars", "cuisine": "Italian" }, "geometry": { "type": "Point", "coordinates": [ -75.171243, 39.967061 ] } },
{ "type": "Feature", "properties": { "name": "sorrelina", "rating": 0.0, "address": "699 N Broad St", "alias": "wine_bars, pizza, italian", "title": "wine bars, pizza, italian", "cuisine": "Italian" }, "geometry": { "type": "Point", "coordinates": [ -75.16023556992063, 39.966826745466349 ] } },
{ "type": "Feature", "properties": { "name": "cicala at the divine lorraine", "rating": 3.5, "address": "699 N Broad St", "alias": "italian", "title": "italian", "cuisine": "Italian" }, "geometry": { "type": "Point", "coordinates": [ -75.16005, 39.96671 ] } },
{ "type": "Feature", "properties": { "name": "tuscan twenty restaurant", "rating": 0.0, "address": "2001 Hamilton St", "alias": "restaurants", "title": "restaurants", "cuisine": "Italian" }, "geometry": { "type": "Point", "coordinates": [ -75.17268, 39.96266 ] } },
{ "type": "Feature", "properties": { "name": "the polish dude's cart", "rating": 0.0, "address": "16TH Street South Of Spring Garden", "alias": "foodstands", "title": "food stands", "cuisine": "East_European" }, "geometry": { "type": "Point", "coordinates": [ -75.16692, 39.95236 ] } },
{ "type": "Feature", "properties": { "name": "severino cucina rustica", "rating": 0.0, "address": "2101 Pennsylvania Ave", "alias": "italian", "title": "italian", "cuisine": "Italian" }, "geometry": { "type": "Point", "coordinates": [ -75.1740804, 39.9628104 ] } },
{ "type": "Feature", "properties": { "name": "pizzeria vetri", "rating": 4.0, "address": "1939 Callowhill St", "alias": "pizza, italian", "title": "pizza, italian", "cuisine": "Italian" }, "geometry": { "type": "Point", "coordinates": [ -75.171213, 39.960888 ] } },
{ "type": "Feature", "properties": { "name": "la gustosa", "rating": 3.9, "address": "1503 Spring Garden St", "alias": "pizza, italian", "title": "pizza, italian", "cuisine": "Italian" }, "geometry": { "type": "Point", "coordinates": [ -75.16323185889793, 39.96294875112622 ] } },
{ "type": "Feature", "properties": { "name": "kite & key", "rating": 3.5, "address": "1836 Callowhill St", "alias": "tradamerican, wine_bars, beerbar", "title": "american, wine bars, beer bar", "cuisine": "Italian" }, "geometry": { "type": "Point", "coordinates": [ -75.16967, 39.96035 ] } },
{ "type": "Feature", "properties": { "name": "brandywine pizza", "rating": 2.3, "address": "1501 Spring Garden St", "alias": "pizza, italian, cheesesteaks", "title": "pizza, italian, cheesesteaks", "cuisine": "Italian" }, "geometry": { "type": "Point", "coordinates": [ -75.1631614, 39.962915 ] } },
{ "type": "Feature", "properties": { "name": "pete's famous pizza", "rating": 3.4, "address": "116 N 21st St", "alias": "pizza, chicken_wings, pastashops", "title": "pizza, chicken wings, pasta shops", "cuisine": "Italian" }, "geometry": { "type": "Point", "coordinates": [ -75.17476, 39.95635 ] } },
{ "type": "Feature", "properties": { "name": "con murphy's", "rating": 3.7, "address": "1700 Benjamin Franklin Pkwy", "alias": "irish, pubs, sportsbars", "title": "irish, pubs, sports bars", "cuisine": "West_European" }, "geometry": { "type": "Point", "coordinates": [ -75.167795, 39.95602 ] } },
{ "type": "Feature", "properties": { "name": "bar 210", "rating": 4.4, "address": "211 W Rittenhouse Sq", "alias": "wine_bars, seafood", "title": "wine bars, seafood", "cuisine": "Italian" }, "geometry": { "type": "Point", "coordinates": [ -75.172932, 39.949705 ] } },
{ "type": "Feature", "properties": { "name": "scarpetta philadelphia", "rating": 4.0, "address": "210 W Rittenhouse Sq", "alias": "italian", "title": "italian", "cuisine": "Italian" }, "geometry": { "type": "Point", "coordinates": [ -75.17292184629126, 39.949985479325981 ] } },
{ "type": "Feature", "properties": { "name": "luna byob", "rating": 4.7, "address": "227 S 20th St", "alias": "italian", "title": "italian", "cuisine": "Italian" }, "geometry": { "type": "Point", "coordinates": [ -75.173804350197315, 39.949678356249578 ] } },
{ "type": "Feature", "properties": { "name": "dejvi mr", "rating": 0.0, "address": "227 S 20th St", "alias": "italian", "title": "italian", "cuisine": "Italian" }, "geometry": { "type": "Point", "coordinates": [ -75.173804, 39.949693 ] } },
{ "type": "Feature", "properties": { "name": "d'angelo's ristorante italiano", "rating": 3.4, "address": "256 S 20th St", "alias": "lounges, italian", "title": "lounges, italian", "cuisine": "Italian" }, "geometry": { "type": "Point", "coordinates": [ -75.17442, 39.94871 ] } },
{ "type": "Feature", "properties": { "name": "parc", "rating": 4.2, "address": "227 S 18th St", "alias": "french, wine_bars, breakfast_brunch", "title": "french, wine bars, breakfast & brunch", "cuisine": "West_European" }, "geometry": { "type": "Point", "coordinates": [ -75.1707273, 39.9491724 ] } },
{ "type": "Feature", "properties": { "name": "charley dove", "rating": 4.3, "address": "276 S 20th St", "alias": "mediterranean, venues, french", "title": "mediterranean, venues & event spaces, french", "cuisine": "West_European" }, "geometry": { "type": "Point", "coordinates": [ -75.174552015960217, 39.948283721161232 ] } },
{ "type": "Feature", "properties": { "name": "restaurant aleksandar", "rating": 3.7, "address": "126 S 19th St", "alias": "modern_european, newamerican", "title": "modern european, new american", "cuisine": "West_European" }, "geometry": { "type": "Point", "coordinates": [ -75.17238, 39.95095 ] } },
{ "type": "Feature", "properties": { "name": "my loup", "rating": 4.5, "address": "2005 Walnut St", "alias": "tradamerican, french", "title": "american, french", "cuisine": "West_European" }, "geometry": { "type": "Point", "coordinates": [ -75.173986740410342, 39.950801548872803 ] } },
{ "type": "Feature", "properties": { "name": "pietro's coal oven pizzeria", "rating": 3.7, "address": "1714 Walnut St", "alias": "pizza, italian, breakfast_brunch", "title": "pizza, italian, breakfast & brunch", "cuisine": "Italian" }, "geometry": { "type": "Point", "coordinates": [ -75.169967651367202, 39.949733734130902 ] } },
{ "type": "Feature", "properties": { "name": "café lutecia", "rating": 4.2, "address": "2301 Lombard St", "alias": "french, breakfast_brunch", "title": "french, breakfast & brunch", "cuisine": "West_European" }, "geometry": { "type": "Point", "coordinates": [ -75.17958, 39.9465999 ] } },
{ "type": "Feature", "properties": { "name": "lombard street trattoria", "rating": 5.0, "address": "2300 Lombard St", "alias": "italian", "title": "italian", "cuisine": "Italian" }, "geometry": { "type": "Point", "coordinates": [ -75.17968186015861, 39.946119773142605 ] } },
{ "type": "Feature", "properties": { "name": "illata", "rating": 4.5, "address": "2241 Grays Ferry Ave", "alias": "tradamerican, italian, seafood", "title": "american, italian, seafood", "cuisine": "Italian" }, "geometry": { "type": "Point", "coordinates": [ -75.18001701682806, 39.944823741609788 ] } },
{ "type": "Feature", "properties": { "name": "ambrosia ristorante byob", "rating": 4.5, "address": "231 S 24th St", "alias": "italian, breakfast_brunch", "title": "italian, breakfast & brunch", "cuisine": "Italian" }, "geometry": { "type": "Point", "coordinates": [ -75.1796, 39.94997 ] } },
{ "type": "Feature", "properties": { "name": "trattoria carina", "rating": 4.4, "address": "2201 Spruce St", "alias": "italian", "title": "italian", "cuisine": "Italian" }, "geometry": { "type": "Point", "coordinates": [ -75.17803, 39.94878 ] } },
{ "type": "Feature", "properties": { "name": "cozette pizza", "rating": 4.0, "address": "2401 Walnut St", "alias": "italian, pizza", "title": "italian, pizza", "cuisine": "Italian" }, "geometry": { "type": "Point", "coordinates": [ -75.17999, 39.95161 ] } },
{ "type": "Feature", "properties": { "name": "pub & kitchen", "rating": 3.6, "address": "1946 Lombard St", "alias": "pubs, newamerican", "title": "pubs, new american", "cuisine": "West_European" }, "geometry": { "type": "Point", "coordinates": [ -75.174758911132798, 39.945640563964801 ] } },
{ "type": "Feature", "properties": { "name": "oltremare", "rating": 4.1, "address": "2121 Walnut St", "alias": "seafood, italian", "title": "seafood, italian", "cuisine": "Italian" }, "geometry": { "type": "Point", "coordinates": [ -75.176540203392506, 39.951106936967271 ] } },
{ "type": "Feature", "properties": { "name": "bistro southeast", "rating": 4.5, "address": "1824 S St", "alias": "asianfusion, seafood, sandwiches", "title": "asian fusion, seafood, sandwiches", "cuisine": "West_European" }, "geometry": { "type": "Point", "coordinates": [ -75.172706868263504, 39.9445223204185 ] } },
{ "type": "Feature", "properties": { "name": "randazzo's pizzeria", "rating": 3.9, "address": "1826 S St", "alias": "pizza, italian, burgers", "title": "pizza, italian, burgers", "cuisine": "Italian" }, "geometry": { "type": "Point", "coordinates": [ -75.172612275718706, 39.944492790710299 ] } },
{ "type": "Feature", "properties": { "name": "lazaro's pizzeria & grill", "rating": 3.9, "address": "1743 South St", "alias": "pizza, italian, sandwiches", "title": "pizza, italian, sandwiches", "cuisine": "Italian" }, "geometry": { "type": "Point", "coordinates": [ -75.171679, 39.944571 ] } },
{ "type": "Feature", "properties": { "name": "l'anima", "rating": 4.3, "address": "1001 S 17th St", "alias": "italian", "title": "italian", "cuisine": "Italian" }, "geometry": { "type": "Point", "coordinates": [ -75.171199925243911, 39.939470080236603 ] } },
{ "type": "Feature", "properties": { "name": "two eagles cafe", "rating": 4.5, "address": "1401 S 20th St", "alias": "cafes, breakfast_brunch, italian", "title": "cafes, breakfast & brunch, italian", "cuisine": "Italian" }, "geometry": { "type": "Point", "coordinates": [ -75.177320619897131, 39.934056273800358 ] } },
{ "type": "Feature", "properties": { "name": "three countries pizzeria", "rating": 2.4, "address": "1626 Dickinson St", "alias": "italian, tradamerican, mexican", "title": "italian, american, mexican", "cuisine": "Italian" }, "geometry": { "type": "Point", "coordinates": [ -75.1723, 39.9321 ] } },
{ "type": "Feature", "properties": { "name": "dante & luigi's", "rating": 4.2, "address": "762 S 10th St", "alias": "italian", "title": "italian", "cuisine": "Italian" }, "geometry": { "type": "Point", "coordinates": [ -75.159422962926001, 39.9400687844998 ] } },
{ "type": "Feature", "properties": { "name": "bellyfiller", "rating": 5.0, "address": "1315 Bainbridge St", "alias": "pizza, italian, cheesesteaks", "title": "pizza, italian, cheesesteaks", "cuisine": "Italian" }, "geometry": { "type": "Point", "coordinates": [ -75.16406, 39.9427 ] } },
{ "type": "Feature", "properties": { "name": "santucci's original square pizza", "rating": 3.7, "address": "901 S 10th St", "alias": "pizza, italian, salad", "title": "pizza, italian, salad", "cuisine": "Italian" }, "geometry": { "type": "Point", "coordinates": [ -75.159227, 39.9390394 ] } },
{ "type": "Feature", "properties": { "name": "la scala’s pronto", "rating": 3.0, "address": "1347 S St", "alias": "italian, pizza, sandwiches", "title": "italian, pizza, sandwiches", "cuisine": "Italian" }, "geometry": { "type": "Point", "coordinates": [ -75.1646882, 39.9436849 ] } },
{ "type": "Feature", "properties": { "name": "ralphs italian restaurant", "rating": 3.6, "address": "760 S 9th St", "alias": "italian", "title": "italian", "cuisine": "Italian" }, "geometry": { "type": "Point", "coordinates": [ -75.15785, 39.94007 ] } },
{ "type": "Feature", "properties": { "name": "cucina maria", "rating": 4.2, "address": "768 S 8th St", "alias": "italian, seafood", "title": "italian, seafood", "cuisine": "Italian" }, "geometry": { "type": "Point", "coordinates": [ -75.156259685754776, 39.939704522154344 ] } },
{ "type": "Feature", "properties": { "name": "fiorella", "rating": 4.5, "address": "817 Christian St", "alias": "pastashops, italian", "title": "pasta shops, italian", "cuisine": "Italian" }, "geometry": { "type": "Point", "coordinates": [ -75.156939, 39.938867776758791 ] } },
{ "type": "Feature", "properties": { "name": "angelina's", "rating": 4.5, "address": "743 S 8th St", "alias": "italian", "title": "italian", "cuisine": "Italian" }, "geometry": { "type": "Point", "coordinates": [ -75.155796669423594, 39.940221216966201 ] } },
{ "type": "Feature", "properties": { "name": "zio sandro's ristorante", "rating": 5.0, "address": "743 S 8th St", "alias": "italian", "title": "italian", "cuisine": "Italian" }, "geometry": { "type": "Point", "coordinates": [ -75.155819, 39.940244 ] } },
{ "type": "Feature", "properties": { "name": "saloon restaurant", "rating": 4.4, "address": "750 S 7th St", "alias": "italian", "title": "italian", "cuisine": "Italian" }, "geometry": { "type": "Point", "coordinates": [ -75.1546, 39.93989 ] } },
{ "type": "Feature", "properties": { "name": "george's sandwich shop", "rating": 3.9, "address": "900 S 9th St", "alias": "sandwiches, italian, cheesesteaks", "title": "sandwiches, italian, cheesesteaks", "cuisine": "Italian" }, "geometry": { "type": "Point", "coordinates": [ -75.157984625731302, 39.938831598610399 ] } },
{ "type": "Feature", "properties": { "name": "paesano's", "rating": 4.6, "address": "943 S 9th St", "alias": "sandwiches, italian, pastashops", "title": "sandwiches, italian, pasta shops", "cuisine": "Italian" }, "geometry": { "type": "Point", "coordinates": [ -75.158014759812048, 39.93803284832731 ] } },
{ "type": "Feature", "properties": { "name": "angeloes pizzeria", "rating": 0.0, "address": "736 S 9th St", "alias": "pizza, italian, steak", "title": "pizza, italian, steakhouses", "cuisine": "Italian" }, "geometry": { "type": "Point", "coordinates": [ -75.157615024191543, 39.940663 ] } },
{ "type": "Feature", "properties": { "name": "grace and proper", "rating": 4.5, "address": "941 S 8th St", "alias": "bars, modern_european, italian", "title": "bars, modern european, italian", "cuisine": "West_European" }, "geometry": { "type": "Point", "coordinates": [ -75.156457498669639, 39.937249525837295 ] } },
{ "type": "Feature", "properties": { "name": "villa di roma", "rating": 3.9, "address": "936 S 9th St", "alias": "italian", "title": "italian", "cuisine": "Italian" }, "geometry": { "type": "Point", "coordinates": [ -75.1581204682589, 39.937926605343804 ] } },
{ "type": "Feature", "properties": { "name": "talluto's authentic italian food", "rating": 4.6, "address": "944 S 9th St", "alias": "italian", "title": "italian", "cuisine": "Italian" }, "geometry": { "type": "Point", "coordinates": [ -75.1582899, 39.93775 ] } },
{ "type": "Feature", "properties": { "name": "paffuto", "rating": 4.5, "address": "1009 S 8th St", "alias": "breakfast_brunch, italian, popuprestaurants", "title": "breakfast & brunch, italian, pop-up restaurants", "cuisine": "Italian" }, "geometry": { "type": "Point", "coordinates": [ -75.156487673521056, 39.936848234818633 ] } },
{ "type": "Feature", "properties": { "name": "royal tavern", "rating": 4.1, "address": "937 E Passyunk Ave", "alias": "sandwiches, wine_bars, cocktailbars", "title": "sandwiches, wine bars, cocktail bars", "cuisine": "Italian" }, "geometry": { "type": "Point", "coordinates": [ -75.154479980468807, 39.936981201171903 ] } },
{ "type": "Feature", "properties": { "name": "farina di vita", "rating": 4.9, "address": "250 Catharine St", "alias": "italian, pastashops, delis", "title": "italian, pasta shops, delis", "cuisine": "Italian" }, "geometry": { "type": "Point", "coordinates": [ -75.148269, 39.937827 ] } },
{ "type": "Feature", "properties": { "name": "little italy pizza & trattoria", "rating": 3.3, "address": "342 Queen St", "alias": "pizza", "title": "pizza", "cuisine": "Italian" }, "geometry": { "type": "Point", "coordinates": [ -75.149971, 39.937401 ] } },
{ "type": "Feature", "properties": { "name": "restaurant ambra", "rating": 4.7, "address": "705 S 4th St", "alias": "italian", "title": "italian", "cuisine": "Italian" }, "geometry": { "type": "Point", "coordinates": [ -75.1492843, 39.9402603 ] } },
{ "type": "Feature", "properties": { "name": "adoro", "rating": 0.0, "address": "769 E Passyunk Ave", "alias": "italian", "title": "italian", "cuisine": "Italian" }, "geometry": { "type": "Point", "coordinates": [ -75.152359753847122, 39.938799140046449 ] } },
{ "type": "Feature", "properties": { "name": "cry baby pasta", "rating": 3.9, "address": "627 S 3rd St", "alias": "italian, wine_bars", "title": "italian, wine bars", "cuisine": "Italian" }, "geometry": { "type": "Point", "coordinates": [ -75.147572010755496, 39.940612719939502 ] } },
{ "type": "Feature", "properties": { "name": "square pie", "rating": 4.6, "address": "801 E Passyunk Ave", "alias": "pizza, italian", "title": "pizza, italian", "cuisine": "Italian" }, "geometry": { "type": "Point", "coordinates": [ -75.152793601155295, 39.938580393791199 ] } },
{ "type": "Feature", "properties": { "name": "excuse my french toast", "rating": 4.0, "address": null, "alias": "fooddeliveryservices, breakfast_brunch, sandwiches", "title": "food delivery services, breakfast & brunch, sandwiches", "cuisine": "West_European" }, "geometry": { "type": "Point", "coordinates": [ -75.152247079518887, 39.935851512434375 ] } },
{ "type": "Feature", "properties": { "name": "il pesce’s", "rating": 0.0, "address": "", "alias": "fooddeliveryservices, seafood, italian", "title": "food delivery services, seafood, italian", "cuisine": "Italian" }, "geometry": { "type": "Point", "coordinates": [ -75.152247079518887, 39.935851512434375 ] } },
{ "type": "Feature", "properties": { "name": "brooklyn calzones", "rating": 1.0, "address": null, "alias": "fooddeliveryservices, italian", "title": "food delivery services, italian", "cuisine": "Italian" }, "geometry": { "type": "Point", "coordinates": [ -75.152247079518887, 39.935851512434375 ] } },
{ "type": "Feature", "properties": { "name": "ristorante aroma", "rating": 4.5, "address": "1245 3rd St", "alias": "italian", "title": "italian", "cuisine": "Italian" }, "geometry": { "type": "Point", "coordinates": [ -75.149500145883181, 39.931871500674802 ] } },
{ "type": "Feature", "properties": { "name": "creme brulee bistro & cafe", "rating": 4.2, "address": "1800 S 4th St", "alias": "coffee, french, cakeshop", "title": "coffee & tea, french, patisserie/cake shop", "cuisine": "West_European" }, "geometry": { "type": "Point", "coordinates": [ -75.152761438068396, 39.925973039912598 ] } },
{ "type": "Feature", "properties": { "name": "serratore’s italian kitchen", "rating": 5.0, "address": "1801 S 4th St", "alias": "italian, sandwiches, cheesesteaks", "title": "italian, sandwiches, cheesesteaks", "cuisine": "Italian" }, "geometry": { "type": "Point", "coordinates": [ -75.15253, 39.92579 ] } },
{ "type": "Feature", "properties": { "name": "2 street pub", "rating": 3.3, "address": "1400 S 2nd St", "alias": "beerbar, chicken_wings, pizza", "title": "beer bar, chicken wings, pizza", "cuisine": "West_European" }, "geometry": { "type": "Point", "coordinates": [ -75.14827, 39.93024 ] } },
{ "type": "Feature", "properties": { "name": "philly cannoli king", "rating": 3.7, "address": "1205 S 9th St", "alias": "bakeries, italian", "title": "bakeries, italian", "cuisine": "Italian" }, "geometry": { "type": "Point", "coordinates": [ -75.15872, 39.93412 ] } },
{ "type": "Feature", "properties": { "name": "slice", "rating": 3.5, "address": "1180 S 10th St", "alias": "pizza, italian", "title": "pizza, italian", "cuisine": "Italian" }, "geometry": { "type": "Point", "coordinates": [ -75.160539, 39.934678 ] } },
{ "type": "Feature", "properties": { "name": "ricci's hoagies", "rating": 4.3, "address": "1165 S 11th St", "alias": "sandwiches, italian", "title": "sandwiches, italian", "cuisine": "Italian" }, "geometry": { "type": "Point", "coordinates": [ -75.16156, 39.93535 ] } },
{ "type": "Feature", "properties": { "name": "palizzi filippo social club", "rating": 4.3, "address": "1408 S 12th St", "alias": "italian, social_clubs", "title": "italian, social clubs", "cuisine": "Italian" }, "geometry": { "type": "Point", "coordinates": [ -75.16442, 39.93215 ] } },
{ "type": "Feature", "properties": { "name": "burrata", "rating": 4.5, "address": "1247 S 13th St", "alias": "italian", "title": "italian", "cuisine": "Italian" }, "geometry": { "type": "Point", "coordinates": [ -75.165243074297905, 39.933925243340802 ] } },
{ "type": "Feature", "properties": { "name": "j&j south philly pizza", "rating": 2.4, "address": "1177 S 9th St", "alias": "pizza, italian", "title": "pizza, italian", "cuisine": "Italian" }, "geometry": { "type": "Point", "coordinates": [ -75.1586317, 39.9344707 ] } },
{ "type": "Feature", "properties": { "name": "chiquita's pizzeria & mexican grill", "rating": 4.6, "address": "746 Snyder Ave", "alias": "pizza, mexican, italian", "title": "pizza, mexican, italian", "cuisine": "Italian" }, "geometry": { "type": "Point", "coordinates": [ -75.1596, 39.92288 ] } },
{ "type": "Feature", "properties": { "name": "bomb bomb", "rating": 4.0, "address": "1026 Wolf St", "alias": "bbq, italian", "title": "barbeque, italian", "cuisine": "Italian" }, "geometry": { "type": "Point", "coordinates": [ -75.16438, 39.92097 ] } },
{ "type": "Feature", "properties": { "name": "la tavola", "rating": 5.0, "address": "1138 W Ritner St", "alias": "italian", "title": "italian", "cuisine": "Italian" }, "geometry": { "type": "Point", "coordinates": [ -75.166736394166904, 39.920009629718209 ] } },
{ "type": "Feature", "properties": { "name": "antonio’s italian specialties", "rating": 4.7, "address": "1138 W Ritner St", "alias": "delis, italian, intlgrocery", "title": "delis, italian, international grocery", "cuisine": "Italian" }, "geometry": { "type": "Point", "coordinates": [ -75.166779945353738, 39.9201628721353 ] } },
{ "type": "Feature", "properties": { "name": "johnnie's italian specialties", "rating": 3.1, "address": "2240 S 12th St", "alias": "italian", "title": "italian", "cuisine": "Italian" }, "geometry": { "type": "Point", "coordinates": [ -75.16673, 39.92155 ] } },
{ "type": "Feature", "properties": { "name": "carangi baking", "rating": 4.7, "address": "2655 S Iseminger St", "alias": "bakeries, italian, cafes", "title": "bakeries, italian, cafes", "cuisine": "Italian" }, "geometry": { "type": "Point", "coordinates": [ -75.16848, 39.91664 ] } },
{ "type": "Feature", "properties": { "name": "trio's italian deli", "rating": 3.3, "address": "2501 S 70th St", "alias": "delis", "title": "delis", "cuisine": "Italian" }, "geometry": { "type": "Point", "coordinates": [ -75.2372026, 39.9171948 ] } },
{ "type": "Feature", "properties": { "name": "nick's pizzeria", "rating": 1.0, "address": "6840 Elmwood Ave", "alias": "italian, pizza", "title": "italian, pizza", "cuisine": "Italian" }, "geometry": { "type": "Point", "coordinates": [ -75.23536, 39.91836 ] } },
{ "type": "Feature", "properties": { "name": "sansom street bistro", "rating": 0.0, "address": "125 S 55th St", "alias": "seafood, chicken_wings", "title": "seafood, chicken wings", "cuisine": "West_European" }, "geometry": { "type": "Point", "coordinates": [ -75.23098, 39.95849 ] } },
{ "type": "Feature", "properties": { "name": "720 bistro", "rating": 4.0, "address": "720 S.52nd st", "alias": "seafood, breakfast_brunch, cocktailbars", "title": "seafood, breakfast & brunch, cocktail bars", "cuisine": "West_European" }, "geometry": { "type": "Point", "coordinates": [ -75.227595, 39.9482433 ] } },
{ "type": "Feature", "properties": { "name": "allegro pizza", "rating": 3.0, "address": "3942 Spruce St", "alias": "pizza, italian, tradamerican", "title": "pizza, italian, american", "cuisine": "Italian" }, "geometry": { "type": "Point", "coordinates": [ -75.20295, 39.95139 ] } },
{ "type": "Feature", "properties": { "name": "walnut hill college", "rating": 3.7, "address": "4207 Walnut St", "alias": "french, bakeries, wine_bars", "title": "french, bakeries, wine bars", "cuisine": "West_European" }, "geometry": { "type": "Point", "coordinates": [ -75.20747, 39.95512 ] } },
{ "type": "Feature", "properties": { "name": "international bistro", "rating": 0.0, "address": "4207 Walnut St", "alias": "modern_european, newamerican", "title": "modern european, new american", "cuisine": "West_European" }, "geometry": { "type": "Point", "coordinates": [ -75.20747, 39.95512 ] } },
{ "type": "Feature", "properties": { "name": "pitruco pizza franklin's table", "rating": 4.8, "address": "3401 Walnut St", "alias": "newamerican, italian, pizza", "title": "new american, italian, pizza", "cuisine": "Italian" }, "geometry": { "type": "Point", "coordinates": [ -75.192761, 39.953094 ] } },
{ "type": "Feature", "properties": { "name": "new deck tavern", "rating": 3.4, "address": "3408 Sansom St", "alias": "tradamerican, irish", "title": "american, irish", "cuisine": "West_European" }, "geometry": { "type": "Point", "coordinates": [ -75.192636439865112, 39.9535171 ] } },
{ "type": "Feature", "properties": { "name": "louie louie", "rating": 3.9, "address": "3611 Walnut St", "alias": "newamerican, french", "title": "new american, french", "cuisine": "West_European" }, "geometry": { "type": "Point", "coordinates": [ -75.195587561139405, 39.953279103815802 ] } },
{ "type": "Feature", "properties": { "name": "trios fresh italian", "rating": 0.0, "address": "3231 Powelton Ave", "alias": "italian", "title": "italian", "cuisine": "Italian" }, "geometry": { "type": "Point", "coordinates": [ -75.189089, 39.960589 ] } },
{ "type": "Feature", "properties": { "name": "lee's market", "rating": 4.7, "address": "423 N 36th St", "alias": "sandwiches, turkish, italian", "title": "sandwiches, turkish, italian", "cuisine": "Italian" }, "geometry": { "type": "Point", "coordinates": [ -75.194077491760297, 39.962303316215902 ] } },
{ "type": "Feature", "properties": { "name": "academic bistro", "rating": 5.0, "address": "101 N 33rd St", "alias": "newamerican", "title": "new american", "cuisine": "West_European" }, "geometry": { "type": "Point", "coordinates": [ -75.18861, 39.95793 ] } },
{ "type": "Feature", "properties": { "name": "joe & romeo inc dba mangia restaurant", "rating": 0.0, "address": "231 St Asaphs Rd", "alias": "italian", "title": "italian", "cuisine": "Italian" }, "geometry": { "type": "Point", "coordinates": [ -75.22117, 40.00727 ] } },
{ "type": "Feature", "properties": { "name": "satay bistro", "rating": 4.4, "address": "1240 Spring Garden St", "alias": "indonesian", "title": "indonesian", "cuisine": "West_European" }, "geometry": { "type": "Point", "coordinates": [ -75.159219074045993, 39.961806843602794 ] } },
{ "type": "Feature", "properties": { "name": "little italy philadelphia", "rating": 3.3, "address": "6TH -10th Fitzwater St", "alias": "italian", "title": "italian", "cuisine": "Italian" }, "geometry": { "type": "Point", "coordinates": [ -75.1574567, 39.9559288 ] } },
{ "type": "Feature", "properties": { "name": "santucci's original square pizza", "rating": 3.2, "address": "655 N Broad St", "alias": "pizza, italian", "title": "pizza, italian", "cuisine": "Italian" }, "geometry": { "type": "Point", "coordinates": [ -75.16039, 39.96531 ] } },
{ "type": "Feature", "properties": { "name": "osteria", "rating": 3.9, "address": "640 N Broad St", "alias": "italian, wine_bars", "title": "italian, wine bars", "cuisine": "Italian" }, "geometry": { "type": "Point", "coordinates": [ -75.161076, 39.965015 ] } },
{ "type": "Feature", "properties": { "name": "mamma ramona’s pizzeria", "rating": 5.0, "address": "1308 W Girard Ave", "alias": "pizza, italian", "title": "pizza, italian", "cuisine": "Italian" }, "geometry": { "type": "Point", "coordinates": [ -75.157736, 39.970817 ] } },
{ "type": "Feature", "properties": { "name": "trios fresh italian", "rating": 2.3, "address": "1308 W Girard Ave", "alias": "italian, pizza", "title": "italian, pizza", "cuisine": "Italian" }, "geometry": { "type": "Point", "coordinates": [ -75.157756, 39.9708036 ] } },
{ "type": "Feature", "properties": { "name": "pasta by la bella bionda", "rating": 0.0, "address": "", "alias": "fooddeliveryservices, italian", "title": "food delivery services, italian", "cuisine": "Italian" }, "geometry": { "type": "Point", "coordinates": [ -75.145879750961228, 39.964203384459616 ] } },
{ "type": "Feature", "properties": { "name": "salvatore’s square pizza", "rating": 0.0, "address": "", "alias": "fooddeliveryservices, italian, pizza", "title": "food delivery services, italian, pizza", "cuisine": "Italian" }, "geometry": { "type": "Point", "coordinates": [ -75.145879750961228, 39.964203384459616 ] } },
{ "type": "Feature", "properties": { "name": "parmigiana", "rating": 4.2, "address": "501 Fairmount Ave", "alias": "italian", "title": "italian", "cuisine": "Italian" }, "geometry": { "type": "Point", "coordinates": [ -75.146819295632639, 39.963359857678228 ] } },
{ "type": "Feature", "properties": { "name": "ms molly’s kitchen", "rating": 4.3, "address": "2514 W Lehigh Ave", "alias": "italian, tradamerican, hotdog", "title": "italian, american, hot dogs", "cuisine": "Italian" }, "geometry": { "type": "Point", "coordinates": [ -75.172931, 39.996073 ] } },
{ "type": "Feature", "properties": { "name": "giuseppe's market at samuels seafood co.", "rating": 4.4, "address": "3400 S Lawrence St", "alias": "seafood, seafoodmarkets", "title": "seafood, seafood markets", "cuisine": "Italian" }, "geometry": { "type": "Point", "coordinates": [ -75.158970678412189, 39.904995854793171 ] } },
{ "type": "Feature", "properties": { "name": "maglio sausage", "rating": 4.7, "address": "3632 S 3rd St", "alias": "meats, cheese, italian", "title": "meat shops, cheese shops, italian", "cuisine": "Italian" }, "geometry": { "type": "Point", "coordinates": [ -75.1554563, 39.9015752 ] } },
{ "type": "Feature", "properties": { "name": "the bistro", "rating": 2.7, "address": "1001 Intrepid Ave", "alias": "cafes", "title": "cafes", "cuisine": "West_European" }, "geometry": { "type": "Point", "coordinates": [ -75.175177, 39.894345 ] } },
{ "type": "Feature", "properties": { "name": "gatehouse ", "rating": 3.7, "address": "4503 S Broad St", "alias": "bars, italian, venues", "title": "bars, italian, venues & event spaces", "cuisine": "Italian" }, "geometry": { "type": "Point", "coordinates": [ -75.1755436, 39.8965991 ] } },
{ "type": "Feature", "properties": { "name": "little walters", "rating": 5.0, "address": "2049 E Hagert St", "alias": "polish", "title": "polish", "cuisine": "East_European" }, "geometry": { "type": "Point", "coordinates": [ -75.12793, 39.98397 ] } },
{ "type": "Feature", "properties": { "name": "forin", "rating": 4.5, "address": "2525 Frankford Ave", "alias": "cafes, breakfast_brunch, wine_bars", "title": "cafes, breakfast & brunch, wine bars", "cuisine": "Italian" }, "geometry": { "type": "Point", "coordinates": [ -75.125307021994345, 39.98366859478719 ] } },
{ "type": "Feature", "properties": { "name": "picnic", "rating": 3.7, "address": "2421 Martha St", "alias": "wine_bars, seafood, beer_and_wine", "title": "wine bars, seafood, beer, wine & spirits", "cuisine": "Italian" }, "geometry": { "type": "Point", "coordinates": [ -75.12759, 39.98224 ] } },
{ "type": "Feature", "properties": { "name": "fiore", "rating": 4.7, "address": "2413 Frankford Ave", "alias": "italian, breakfast_brunch, sandwiches", "title": "italian, breakfast & brunch, sandwiches", "cuisine": "Italian" }, "geometry": { "type": "Point", "coordinates": [ -75.127005882263006, 39.981897076163136 ] } },
{ "type": "Feature", "properties": { "name": "meetinghouse", "rating": 4.4, "address": "2331 E Cumberland St", "alias": "beerbar, wine_bars, sandwiches", "title": "beer bar, wine bars, sandwiches", "cuisine": "Italian" }, "geometry": { "type": "Point", "coordinates": [ -75.123057290911674, 39.980379049555616 ] } },
{ "type": "Feature", "properties": { "name": "p&s ravioli company", "rating": 4.4, "address": "1722 W Oregon Ave", "alias": "italian", "title": "italian", "cuisine": "Italian" }, "geometry": { "type": "Point", "coordinates": [ -75.17709104455335, 39.917384485820662 ] } },
{ "type": "Feature", "properties": { "name": "rocco’s italian sausage and philly cheese steaks", "rating": 4.4, "address": "2200 W Oregon Ave", "alias": "foodtrucks, hotdog, cheesesteaks", "title": "food trucks, hot dogs, cheesesteaks", "cuisine": "Italian" }, "geometry": { "type": "Point", "coordinates": [ -75.185225298869099, 39.918138340811701 ] } },
{ "type": "Feature", "properties": { "name": "nitty's tavern", "rating": 4.1, "address": "1720 W Moyamensing Ave", "alias": "italian, sportsbars, salad", "title": "italian, sports bars, salad", "cuisine": "Italian" }, "geometry": { "type": "Point", "coordinates": [ -75.176577, 39.915025 ] } },
{ "type": "Feature", "properties": { "name": "heavy metal sausage", "rating": 4.9, "address": "1527 W Porter St", "alias": "italian, sandwiches", "title": "italian, sandwiches", "cuisine": "Italian" }, "geometry": { "type": "Point", "coordinates": [ -75.173393972218037, 39.919874828180589 ] } },
{ "type": "Feature", "properties": { "name": "the pizza pub", "rating": 2.5, "address": "1940 W Passyunk Ave", "alias": "pizza, pubs", "title": "pizza, pubs", "cuisine": "West_European" }, "geometry": { "type": "Point", "coordinates": [ -75.179443359375, 39.923542022705107 ] } },
{ "type": "Feature", "properties": { "name": "barrel's fine food", "rating": 3.8, "address": "1725 Wolf St", "alias": "italian", "title": "italian", "cuisine": "Italian" }, "geometry": { "type": "Point", "coordinates": [ -75.175949096679702, 39.922805786132798 ] } },
{ "type": "Feature", "properties": { "name": "1731 restaurant", "rating": 4.7, "address": "1731 Packer Ave", "alias": "italian, pizza, desserts", "title": "italian, pizza, desserts", "cuisine": "Italian" }, "geometry": { "type": "Point", "coordinates": [ -75.177616323312748, 39.912697902537801 ] } },
{ "type": "Feature", "properties": { "name": "wolf street pizza", "rating": 2.3, "address": "2135 Wolf St", "alias": "pizza, italian, pastashops", "title": "pizza, italian, pasta shops", "cuisine": "Italian" }, "geometry": { "type": "Point", "coordinates": [ -75.182575, 39.92358 ] } },
{ "type": "Feature", "properties": { "name": "primohoagies", "rating": 3.5, "address": "1528 W Ritner St", "alias": "sandwiches, italian, steak", "title": "sandwiches, italian, steakhouses", "cuisine": "Italian" }, "geometry": { "type": "Point", "coordinates": [ -75.1733058, 39.9209271 ] } },
{ "type": "Feature", "properties": { "name": "cacia's bakery", "rating": 4.2, "address": "1526 W Ritner St", "alias": "bakeries, pizza, italian", "title": "bakeries, pizza, italian", "cuisine": "Italian" }, "geometry": { "type": "Point", "coordinates": [ -75.1731796, 39.9209373 ] } },
{ "type": "Feature", "properties": { "name": "popi's italian restaurant", "rating": 3.6, "address": "3120 S 20th St", "alias": "italian", "title": "italian", "cuisine": "Italian" }, "geometry": { "type": "Point", "coordinates": [ -75.182635938155997, 39.911596446412005 ] } },
{ "type": "Feature", "properties": { "name": "rocco's italian sausages & philly cheese steaks", "rating": 0.0, "address": "1601 S Columbus Blvd", "alias": "cheesesteaks, sandwiches", "title": "cheesesteaks, sandwiches", "cuisine": "Italian" }, "geometry": { "type": "Point", "coordinates": [ -75.1443383, 39.9271255 ] } },
{ "type": "Feature", "properties": { "name": "rocco’s italian sausages", "rating": 4.0, "address": "1651 S Christopher Columbus Blvd", "alias": "italian", "title": "italian", "cuisine": "Italian" }, "geometry": { "type": "Point", "coordinates": [ -75.143005, 39.925939 ] } },
{ "type": "Feature", "properties": { "name": "rocco's italian sausage", "rating": 4.5, "address": "1601 S Columbus Blvd", "alias": "sandwiches, breakfast_brunch, italian", "title": "sandwiches, breakfast & brunch, italian", "cuisine": "Italian" }, "geometry": { "type": "Point", "coordinates": [ -75.142802091282107, 39.925595900619001 ] } },
{ "type": "Feature", "properties": { "name": "little sicily pizza", "rating": 2.8, "address": "1433 W Passyunk Ave", "alias": "pizza, italian", "title": "pizza, italian", "cuisine": "Italian" }, "geometry": { "type": "Point", "coordinates": [ -75.170394927263303, 39.925412759184802 ] } },
{ "type": "Feature", "properties": { "name": "pizzeria pesto", "rating": 3.9, "address": "1925 S Broad St", "alias": "pizza, italian", "title": "pizza, italian", "cuisine": "Italian" }, "geometry": { "type": "Point", "coordinates": [ -75.16894, 39.92611 ] } },
{ "type": "Feature", "properties": { "name": "ristorante pesto", "rating": 4.7, "address": "1915 S Broad St", "alias": "italian", "title": "italian", "cuisine": "Italian" }, "geometry": { "type": "Point", "coordinates": [ -75.16888, 39.92634 ] } },
{ "type": "Feature", "properties": { "name": "caffe ida", "rating": 4.8, "address": "1732 W Passyunk Ave", "alias": "coffee, italian", "title": "coffee & tea, italian", "cuisine": "Italian" }, "geometry": { "type": "Point", "coordinates": [ -75.175689, 39.924223 ] } },
{ "type": "Feature", "properties": { "name": "mike & matt's italian market", "rating": 4.6, "address": "1206 Mifflin St", "alias": "delis, grocery, meats", "title": "delis, grocery, meat shops", "cuisine": "Italian" }, "geometry": { "type": "Point", "coordinates": [ -75.165969500000017, 39.9262649 ] } },
{ "type": "Feature", "properties": { "name": "stogie joe's tavern", "rating": 3.5, "address": "1801 E Passyunk Ave", "alias": "burgers, pastashops, pizza", "title": "burgers, pasta shops, pizza", "cuisine": "Italian" }, "geometry": { "type": "Point", "coordinates": [ -75.166057, 39.927559 ] } },
{ "type": "Feature", "properties": { "name": "marra's", "rating": 3.0, "address": "1734 E Passyunk Ave", "alias": "italian", "title": "italian", "cuisine": "Italian" }, "geometry": { "type": "Point", "coordinates": [ -75.16596, 39.92798 ] } },
{ "type": "Feature", "properties": { "name": "p & s ravioli", "rating": 4.3, "address": "1640 S 10th St", "alias": "italian, diyfood", "title": "italian, do-it-yourself food", "cuisine": "Italian" }, "geometry": { "type": "Point", "coordinates": [ -75.16206, 39.9285 ] } },
{ "type": "Feature", "properties": { "name": "ristorante mamma maria's", "rating": 3.3, "address": "1637 E Passyunk Ave", "alias": "italian", "title": "italian", "cuisine": "Italian" }, "geometry": { "type": "Point", "coordinates": [ -75.16406, 39.92909 ] } },
{ "type": "Feature", "properties": { "name": "artisan boulanger patissier", "rating": 4.5, "address": "1218 Mifflin St", "alias": "bakeries, french, coffee", "title": "bakeries, french, coffee & tea", "cuisine": "West_European" }, "geometry": { "type": "Point", "coordinates": [ -75.1664513, 39.9264181 ] } },
{ "type": "Feature", "properties": { "name": "mr martino's trattoria", "rating": 4.2, "address": "1646 E Passyunk Ave", "alias": "italian", "title": "italian", "cuisine": "Italian" }, "geometry": { "type": "Point", "coordinates": [ -75.164705, 39.929019 ] } },
{ "type": "Feature", "properties": { "name": "townsend wine bar", "rating": 4.3, "address": "1623 E Passyunk Ave", "alias": "wine_bars, french", "title": "wine bars, french", "cuisine": "West_European" }, "geometry": { "type": "Point", "coordinates": [ -75.163806751370402, 39.929359008333996 ] } },
{ "type": "Feature", "properties": { "name": "laurel", "rating": 4.4, "address": "1617 E Passyunk Ave", "alias": "french, newamerican, cocktailbars", "title": "french, new american, cocktail bars", "cuisine": "West_European" }, "geometry": { "type": "Point", "coordinates": [ -75.163711547851605, 39.929420471191406 ] } },
{ "type": "Feature", "properties": { "name": "lucky 13 pub", "rating": 3.9, "address": "1820 S 13th St", "alias": "pubs, newamerican", "title": "pubs, new american", "cuisine": "West_European" }, "geometry": { "type": "Point", "coordinates": [ -75.16713, 39.92716 ] } },
{ "type": "Feature", "properties": { "name": "stargazy", "rating": 4.7, "address": "1838 E Passyunk Ave", "alias": "british", "title": "british", "cuisine": "West_European" }, "geometry": { "type": "Point", "coordinates": [ -75.167358228877319, 39.9267687862217 ] } },
{ "type": "Feature", "properties": { "name": "noir restaurant & bar", "rating": 4.2, "address": "1909 E Passyunk Ave", "alias": "pubs, italian, salad", "title": "pubs, italian, salad", "cuisine": "Italian" }, "geometry": { "type": "Point", "coordinates": [ -75.167453996377034, 39.926335709876213 ] } },
{ "type": "Feature", "properties": { "name": "dankbaar", "rating": 4.7, "address": "1911 E Passyunk Ave", "alias": "modern_european", "title": "modern european", "cuisine": "West_European" }, "geometry": { "type": "Point", "coordinates": [ -75.167475, 39.926274 ] } },
{ "type": "Feature", "properties": { "name": "la collina", "rating": 3.2, "address": "37-41 Ashland Ave", "alias": "italian, wine_bars, cocktailbars", "title": "italian, wine bars, cocktail bars", "cuisine": "Italian" }, "geometry": { "type": "Point", "coordinates": [ -75.232121730901795, 40.026472787201051 ] } },
{ "type": "Feature", "properties": { "name": "fyahside jamaican bistro", "rating": 4.7, "address": "2326 E Westmoreland St", "alias": "caribbean", "title": "caribbean", "cuisine": "West_European" }, "geometry": { "type": "Point", "coordinates": [ -75.10454, 39.99024 ] } },
{ "type": "Feature", "properties": { "name": "rocco's italian sausage", "rating": 2.7, "address": "2539 Castor Ave", "alias": "breakfast_brunch, sandwiches, italian", "title": "breakfast & brunch, sandwiches, italian", "cuisine": "Italian" }, "geometry": { "type": "Point", "coordinates": [ -75.091485410908234, 39.992085046686377 ] } },
{ "type": "Feature", "properties": { "name": "aazion bistro", "rating": 0.0, "address": "1308 W Girard Ave", "alias": "pizza", "title": "pizza", "cuisine": "West_European" }, "geometry": { "type": "Point", "coordinates": [ -75.157726, 39.97096 ] } },
{ "type": "Feature", "properties": { "name": "figo", "rating": 3.2, "address": "1033 N 2nd St", "alias": "italian, cocktailbars", "title": "italian, cocktail bars", "cuisine": "Italian" }, "geometry": { "type": "Point", "coordinates": [ -75.13982, 39.96768 ] } },
{ "type": "Feature", "properties": { "name": "mias bistro philly", "rating": 0.0, "address": "1341 N Delaware Ave", "alias": "latin", "title": "latin american", "cuisine": "West_European" }, "geometry": { "type": "Point", "coordinates": [ -75.1274826, 39.9679264313435 ] } },
{ "type": "Feature", "properties": { "name": "murph's bar", "rating": 4.3, "address": "202 E Girard Ave", "alias": "sportsbars, italian, irish_pubs", "title": "sports bars, italian, irish pub", "cuisine": "West_European" }, "geometry": { "type": "Point", "coordinates": [ -75.133433300005223, 39.9689397 ] } },
{ "type": "Feature", "properties": { "name": "frankford hall", "rating": 4.1, "address": "1210 Frankford Ave", "alias": "german, pretzels, beergardens", "title": "german, pretzels, beer gardens", "cuisine": "West_European" }, "geometry": { "type": "Point", "coordinates": [ -75.134647, 39.969439 ] } },
{ "type": "Feature", "properties": { "name": "the galley", "rating": 5.0, "address": "100 E. Girard Ave", "alias": "tradamerican, chicken_wings, polish", "title": "american, chicken wings, polish", "cuisine": "East_European" }, "geometry": { "type": "Point", "coordinates": [ -75.1341748, 39.9686486 ] } },
{ "type": "Feature", "properties": { "name": "mia’s bistro", "rating": 5.0, "address": "1341 Delaware Ave", "alias": "cafes", "title": "cafes", "cuisine": "West_European" }, "geometry": { "type": "Point", "coordinates": [ -75.1374197, 39.96018620000001 ] } },
{ "type": "Feature", "properties": { "name": "o'neals pub", "rating": 3.9, "address": "611 S 3rd St", "alias": "pubs, irish", "title": "pubs, irish", "cuisine": "West_European" }, "geometry": { "type": "Point", "coordinates": [ -75.147402, 39.941026 ] } },
{ "type": "Feature", "properties": { "name": "positano coast by aldo lamberti", "rating": 3.8, "address": "212 Walnut St", "alias": "italian, seafood, lounges", "title": "italian, seafood, lounges", "cuisine": "Italian" }, "geometry": { "type": "Point", "coordinates": [ -75.144724, 39.9466579 ] } },
{ "type": "Feature", "properties": { "name": "what's the catch?", "rating": 5.0, "address": "509 S 2nd St", "alias": "seafood, comfortfood, fishnchips", "title": "seafood, comfort food, fish & chips", "cuisine": "West_European" }, "geometry": { "type": "Point", "coordinates": [ -75.145118, 39.941844 ] } },
{ "type": "Feature", "properties": { "name": "la nonna", "rating": 4.5, "address": "214 S St", "alias": "italian, comfortfood, pastashops", "title": "italian, comfort food, pasta shops", "cuisine": "Italian" }, "geometry": { "type": "Point", "coordinates": [ -75.146112, 39.94117 ] } },
{ "type": "Feature", "properties": { "name": "bistro romano", "rating": 4.1, "address": "120 Lombard St", "alias": "italian, wine_bars", "title": "italian, wine bars", "cuisine": "West_European" }, "geometry": { "type": "Point", "coordinates": [ -75.144683488430005, 39.9419372504695 ] } },
{ "type": "Feature", "properties": { "name": "lascala's fire", "rating": 3.7, "address": "615 Chestnut St", "alias": "italian, venues", "title": "italian, venues & event spaces", "cuisine": "Italian" }, "geometry": { "type": "Point", "coordinates": [ -75.15166, 39.94963 ] } },
{ "type": "Feature", "properties": { "name": "azione", "rating": 2.0, "address": "241 Chestnut St", "alias": "italian", "title": "italian", "cuisine": "Italian" }, "geometry": { "type": "Point", "coordinates": [ -75.1457367, 39.9487991 ] } },
{ "type": "Feature", "properties": { "name": "forsythia", "rating": 4.4, "address": "233 Chestnut St", "alias": "modern_european, french, newamerican", "title": "modern european, french, new american", "cuisine": "West_European" }, "geometry": { "type": "Point", "coordinates": [ -75.145394057035404, 39.948706792605599 ] } },
{ "type": "Feature", "properties": { "name": "sakartvelo", "rating": 4.6, "address": "705 Chestnut St", "alias": "georgian", "title": "georgian", "cuisine": "East_European" }, "geometry": { "type": "Point", "coordinates": [ -75.15239033862089, 39.949672 ] } },
{ "type": "Feature", "properties": { "name": "lamberti pizza and market", "rating": 4.1, "address": "707 Chestnut St", "alias": "italian, pizza, sandwiches", "title": "italian, pizza, sandwiches", "cuisine": "Italian" }, "geometry": { "type": "Point", "coordinates": [ -75.15262, 39.94978 ] } },
{ "type": "Feature", "properties": { "name": "european republic", "rating": 4.1, "address": "213 Chestnut St", "alias": "belgian, sandwiches", "title": "belgian, sandwiches", "cuisine": "West_European" }, "geometry": { "type": "Point", "coordinates": [ -75.14469, 39.94861 ] } },
{ "type": "Feature", "properties": { "name": "radicchio cafe", "rating": 4.2, "address": "402 Wood St", "alias": "italian, cafes", "title": "italian, cafes", "cuisine": "Italian" }, "geometry": { "type": "Point", "coordinates": [ -75.146276893861767, 39.956611 ] } },
{ "type": "Feature", "properties": { "name": "la madeleine french bakery & cafe", "rating": 5.0, "address": "1101 Market St", "alias": "bakeries, cafes", "title": "bakeries, cafes", "cuisine": "West_European" }, "geometry": { "type": "Point", "coordinates": [ -75.158684214461204, 39.952621977876397 ] } },
{ "type": "Feature", "properties": { "name": "little nonna's", "rating": 4.2, "address": "1234 Locust St", "alias": "italian", "title": "italian", "cuisine": "Italian" }, "geometry": { "type": "Point", "coordinates": [ -75.161892809084307, 39.947786438019598 ] } },
{ "type": "Feature", "properties": { "name": "mercato byob", "rating": 3.9, "address": "1216 Spruce St", "alias": "italian", "title": "italian", "cuisine": "Italian" }, "geometry": { "type": "Point", "coordinates": [ -75.16177, 39.94646 ] } },
{ "type": "Feature", "properties": { "name": "primohoagies", "rating": 3.4, "address": "128 S 11th St", "alias": "sandwiches, italian, steak", "title": "sandwiches, italian, steakhouses", "cuisine": "Italian" }, "geometry": { "type": "Point", "coordinates": [ -75.159052233275403, 39.949216186981403 ] } },
{ "type": "Feature", "properties": { "name": "marabella meatball", "rating": 0.0, "address": "1211 Walnut St", "alias": "italian", "title": "italian", "cuisine": "Italian" }, "geometry": { "type": "Point", "coordinates": [ -75.1609568, 39.9490755 ] } },
{ "type": "Feature", "properties": { "name": "monster vegan", "rating": 4.5, "address": "1229 Spruce St", "alias": "vegan, italian, sandwiches", "title": "vegan, italian, sandwiches", "cuisine": "Italian" }, "geometry": { "type": "Point", "coordinates": [ -75.162240209441379, 39.946761193564129 ] } },
{ "type": "Feature", "properties": { "name": "barra rossa ristorante", "rating": 3.5, "address": "929 Walnut St", "alias": "italian, pizza", "title": "italian, pizza", "cuisine": "Italian" }, "geometry": { "type": "Point", "coordinates": [ -75.157181708847503, 39.948566634077835 ] } },
{ "type": "Feature", "properties": { "name": "damò pasta lab", "rating": 4.2, "address": "105 S 12th St", "alias": "italian, pastashops, desserts", "title": "italian, pasta shops, desserts", "cuisine": "Italian" }, "geometry": { "type": "Point", "coordinates": [ -75.160239745401284, 39.949843383920886 ] } },
{ "type": "Feature", "properties": { "name": "fergie's pub", "rating": 3.6, "address": "1214 Sansom St", "alias": "irish_pubs, breakfast_brunch, musicvenues", "title": "irish pub, breakfast & brunch, music venues", "cuisine": "West_European" }, "geometry": { "type": "Point", "coordinates": [ -75.16115, 39.9496 ] } },
{ "type": "Feature", "properties": { "name": "table 31", "rating": 0.0, "address": "1701 Jfk Restaurant", "alias": "italian", "title": "italian", "cuisine": "Italian" }, "geometry": { "type": "Point", "coordinates": [ -75.1683502, 39.9542503 ] } },
{ "type": "Feature", "properties": { "name": "la scala’s", "rating": 2.4, "address": "1701 John F Kennedy Blvd", "alias": "salad, italian, sandwiches", "title": "salad, italian, sandwiches", "cuisine": "Italian" }, "geometry": { "type": "Point", "coordinates": [ -75.168470082209495, 39.95458137649009 ] } },
{ "type": "Feature", "properties": { "name": "café click", "rating": 4.4, "address": "1701 John F Kennedy Blvd", "alias": "cafes, french, beer_and_wine", "title": "cafes, french, beer, wine & spirits", "cuisine": "West_European" }, "geometry": { "type": "Point", "coordinates": [ -75.168644745963292, 39.954291083537832 ] } },
{ "type": "Feature", "properties": { "name": "paganos market and bar", "rating": 2.9, "address": "2001 Market St", "alias": "sandwiches, italian, cocktailbars", "title": "sandwiches, italian, cocktail bars", "cuisine": "Italian" }, "geometry": { "type": "Point", "coordinates": [ -75.173917733798902, 39.954309307731108 ] } },
{ "type": "Feature", "properties": { "name": "tir na nóg irish pub", "rating": 3.4, "address": "1600 Arch Pkwy", "alias": "irish_pubs, newamerican", "title": "irish pub, new american", "cuisine": "West_European" }, "geometry": { "type": "Point", "coordinates": [ -75.1667133, 39.95437170000001 ] } },
{ "type": "Feature", "properties": { "name": "qu japan bistro & bar", "rating": 4.4, "address": "1635 Market St", "alias": "japanese, sushi, bars", "title": "japanese, sushi bars, bars", "cuisine": "West_European" }, "geometry": { "type": "Point", "coordinates": [ -75.168052, 39.953712 ] } },
{ "type": "Feature", "properties": { "name": "rittenhouse grill", "rating": 3.8, "address": "1701 Locust St", "alias": "steak, wine_bars, seafood", "title": "steakhouses, wine bars, seafood", "cuisine": "Italian" }, "geometry": { "type": "Point", "coordinates": [ -75.16955, 39.94915 ] } },
{ "type": "Feature", "properties": { "name": "melograno", "rating": 3.8, "address": "2012 Sansom St", "alias": "italian", "title": "italian", "cuisine": "Italian" }, "geometry": { "type": "Point", "coordinates": [ -75.1741313, 39.9512145 ] } },
{ "type": "Feature", "properties": { "name": "the dandelion", "rating": 4.2, "address": "124 S 18th St", "alias": "gastropubs, british", "title": "gastropubs, british", "cuisine": "West_European" }, "geometry": { "type": "Point", "coordinates": [ -75.170636, 39.951004 ] } },
{ "type": "Feature", "properties": { "name": "tria cafe rittenhouse", "rating": 4.4, "address": "123 S 18th St", "alias": "wine_bars, modern_european", "title": "wine bars, modern european", "cuisine": "West_European" }, "geometry": { "type": "Point", "coordinates": [ -75.1704197, 39.9509483 ] } },
{ "type": "Feature", "properties": { "name": "her place", "rating": 4.5, "address": "1740 Sansom St", "alias": "french, italian, supperclubs", "title": "french, italian, supper clubs", "cuisine": "West_European" }, "geometry": { "type": "Point", "coordinates": [ -75.17016, 39.95074 ] } },
{ "type": "Feature", "properties": { "name": "la fontana della citta", "rating": 3.0, "address": "1701 Spruce St", "alias": "italian", "title": "italian", "cuisine": "Italian" }, "geometry": { "type": "Point", "coordinates": [ -75.16958, 39.9477199 ] } },
{ "type": "Feature", "properties": { "name": "vita", "rating": 4.5, "address": "261 S 17th St", "alias": "italian", "title": "italian", "cuisine": "Italian" }, "geometry": { "type": "Point", "coordinates": [ -75.16935, 39.947996 ] } },
{ "type": "Feature", "properties": { "name": "bottega rittenhouse", "rating": 5.0, "address": "263 S 17th St", "alias": "italian, gelato, sandwiches", "title": "italian, gelato, sandwiches", "cuisine": "Italian" }, "geometry": { "type": "Point", "coordinates": [ -75.169351, 39.947918 ] } },
{ "type": "Feature", "properties": { "name": "porcini", "rating": 3.7, "address": "2048 Sansom St", "alias": "italian", "title": "italian", "cuisine": "Italian" }, "geometry": { "type": "Point", "coordinates": [ -75.1751139, 39.951348 ] } },
{ "type": "Feature", "properties": { "name": "alimentari ", "rating": 4.6, "address": "1730 Chestnut St", "alias": "wine_bars, italian", "title": "wine bars, italian", "cuisine": "Italian" }, "geometry": { "type": "Point", "coordinates": [ -75.170065350830598, 39.95131096333791 ] } },
{ "type": "Feature", "properties": { "name": "liberte lounge", "rating": 3.4, "address": "120 S 17th St", "alias": "lounges, french, sandwiches", "title": "lounges, french, sandwiches", "cuisine": "West_European" }, "geometry": { "type": "Point", "coordinates": [ -75.1690789, 39.9507906 ] } },
{ "type": "Feature", "properties": { "name": "damò pasta lab", "rating": 4.7, "address": "100 S 21st St", "alias": "italian, desserts, soup", "title": "italian, desserts, soup", "cuisine": "Italian" }, "geometry": { "type": "Point", "coordinates": [ -75.175693, 39.952028 ] } },
{ "type": "Feature", "properties": { "name": "primohoagies", "rating": 4.0, "address": "2043 Chestnut St", "alias": "sandwiches, italian, steak", "title": "sandwiches, italian, steakhouses", "cuisine": "Italian" }, "geometry": { "type": "Point", "coordinates": [ -75.175, 39.95249 ] } },
{ "type": "Feature", "properties": { "name": "viet bistro", "rating": 3.8, "address": "1640 S St", "alias": "vietnamese, soup, noodles", "title": "vietnamese, soup, noodles", "cuisine": "West_European" }, "geometry": { "type": "Point", "coordinates": [ -75.1701109, 39.9440531 ] } },
{ "type": "Feature", "properties": { "name": "bistro la baia", "rating": 3.6, "address": "1700 Lombard St", "alias": "italian, mediterranean, seafood", "title": "italian, mediterranean, seafood", "cuisine": "West_European" }, "geometry": { "type": "Point", "coordinates": [ -75.170267, 39.945165 ] } },
{ "type": "Feature", "properties": { "name": "chez hansi", "rating": 4.7, "address": "1610 S St", "alias": "modern_european, desserts, newamerican", "title": "modern european, desserts, new american", "cuisine": "West_European" }, "geometry": { "type": "Point", "coordinates": [ -75.169210396707058, 39.9440045380071 ] } },
{ "type": "Feature", "properties": { "name": "la sera italiana", "rating": 4.8, "address": "1608 South St", "alias": "italian, salad, burgers", "title": "italian, salad, burgers", "cuisine": "Italian" }, "geometry": { "type": "Point", "coordinates": [ -75.169150855778284, 39.944034733562603 ] } },
{ "type": "Feature", "properties": { "name": "franco fusion", "rating": 0.0, "address": "1438 Federal St", "alias": "mexican, italian, pizza", "title": "mexican, italian, pizza", "cuisine": "Italian" }, "geometry": { "type": "Point", "coordinates": [ -75.1687016, 39.935859547627722 ] } },
{ "type": "Feature", "properties": { "name": "pat's pizza & pasta", "rating": 3.2, "address": "1410 S St", "alias": "pizza, italian, salad", "title": "pizza, italian, salad", "cuisine": "Italian" }, "geometry": { "type": "Point", "coordinates": [ -75.166054, 39.943568 ] } },
{ "type": "Feature", "properties": { "name": "quick check", "rating": 3.0, "address": "501 S Broad St", "alias": "italian", "title": "italian", "cuisine": "Italian" }, "geometry": { "type": "Point", "coordinates": [ -75.16502, 39.94462 ] } },